[
  {
    "id": "2129",
    "name": "EG Ampol West Ryde",
    "brand": "EG Ampol",
    "address": "924 Victoria Rd, WEST RYDE NSW 2114",
    "lat": -33.810887,
    "lng": 151.093485,
    "prices": [
      {
        "fuel_type": "E10",
        "price": 223.9
      },
      {
        "fuel_type": "P95",
        "price": 240.9
      },
      {
        "fuel_type": "P98",
        "price": 249.9
      },
      {
        "fuel_type": "PDL",
        "price": 307.9
      },
      {
        "fuel_type": "U91",
        "price": 225.9
      }
    ],
    "source": "fuelcheck"
  },
  {
    "id": "2141",
    "name": "Powerfuel",
    "brand": "Powerfuel",
    "address": "101 Blaxcell St, GRANVILLE NSW 2142",
    "lat": -33.842551,
    "lng": 151.010602,
    "prices": [
      {
        "fuel_type": "DL",
        "price": 295.9
      },
      {
        "fuel_type": "E10",
        "price": 225.5
      },
      {
        "fuel_type": "P95",
        "price": 255.5
      },
      {
        "fuel_type": "U91",
        "price": 227.5
      }
    ],
    "source": "fuelcheck"
  },
  {
    "id": "2204",
    "name": "Ampol Foodary Concord",
    "brand": "Ampol Foodary",
    "address": "87-89 Parramatta Rd, CONCORD NSW 2137",
    "lat": -33.867895,
    "lng": 151.099444,
    "prices": [
      {
        "fuel_type": "P95",
        "price": 243.9
      },
      {
        "fuel_type": "P98",
        "price": 252.9
      },
      {
        "fuel_type": "PDL",
        "price": 309.4
      },
      {
        "fuel_type": "U91",
        "price": 227.9
      }
    ],
    "source": "fuelcheck"
  },
  {
    "id": "2221",
    "name": "BP Guildford",
    "brand": "BP",
    "address": "257 Guildford Rd, GUILDFORD NSW 2161",
    "lat": -33.85437,
    "lng": 150.988836,
    "prices": [
      {
        "fuel_type": "DL",
        "price": 302.5
      },
      {
        "fuel_type": "E10",
        "price": 227.5
      },
      {
        "fuel_type": "P98",
        "price": 258.5
      },
      {
        "fuel_type": "PDL",
        "price": 304.5
      },
      {
        "fuel_type": "U91",
        "price": 229.5
      }
    ],
    "source": "fuelcheck"
  },
  {
    "id": "2242",
    "name": "Metro Petroleum Chester Hill",
    "brand": "Metro Fuel",
    "address": "172 Hector St, CHESTER HILL NSW 2162",
    "lat": -33.8889,
    "lng": 151.005411,
    "prices": [
      {
        "fuel_type": "E10",
        "price": 227.5
      },
      {
        "fuel_type": "P98",
        "price": 255.5
      },
      {
        "fuel_type": "PDL",
        "price": 309.5
      },
      {
        "fuel_type": "U91",
        "price": 229.5
      }
    ],
    "source": "fuelcheck"
  },
  {
    "id": "2240",
    "name": "BP Haberfield",
    "brand": "BP",
    "address": "95-97 Ramsay St, HABERFIELD NSW 2045",
    "lat": -33.881623,
    "lng": 151.140229,
    "prices": [
      {
        "fuel_type": "E10",
        "price": 225.9
      },
      {
        "fuel_type": "P98",
        "price": 253.9
      },
      {
        "fuel_type": "PDL",
        "price": 309.9
      },
      {
        "fuel_type": "U91",
        "price": 228.9
      }
    ],
    "source": "fuelcheck"
  },
  {
    "id": "2252",
    "name": "BP Silverwater",
    "brand": "BP",
    "address": "Cnr Silverwater Road & Derby Street, SILVERWATER NSW 2128",
    "lat": -33.837648,
    "lng": 151.046763,
    "prices": [
      {
        "fuel_type": "DL",
        "price": 304.9
      },
      {
        "fuel_type": "E10",
        "price": 221.9
      },
      {
        "fuel_type": "P95",
        "price": 238.9
      },
      {
        "fuel_type": "P98",
        "price": 247.9
      },
      {
        "fuel_type": "PDL",
        "price": 307.9
      }
    ],
    "source": "fuelcheck"
  },
  {
    "id": "2305",
    "name": "Ampol Foodary Strathfield South",
    "brand": "Ampol Foodary",
    "address": "600 Liverpool Rd, STRATHFIELD SOUTH NSW 2136",
    "lat": -33.888188,
    "lng": 151.074621,
    "prices": [
      {
        "fuel_type": "E10",
        "price": 225.9
      },
      {
        "fuel_type": "P95",
        "price": 243.9
      },
      {
        "fuel_type": "P98",
        "price": 252.9
      },
      {
        "fuel_type": "PDL",
        "price": 310.4
      },
      {
        "fuel_type": "U91",
        "price": 227.9
      }
    ],
    "source": "fuelcheck"
  },
  {
    "id": "2336",
    "name": "Ampol Foodary Dural",
    "brand": "Ampol Foodary",
    "address": "917-923 Old Northern Rd, DURAL NSW 2158",
    "lat": -33.68313,
    "lng": 151.028749,
    "prices": [
      {
        "fuel_type": "P98",
        "price": 252.9
      },
      {
        "fuel_type": "PDL",
        "price": 312.4
      },
      {
        "fuel_type": "U91",
        "price": 227.9
      }
    ],
    "source": "fuelcheck"
  },
  {
    "id": "2337",
    "name": "Ampol Foodary Cherrybrook",
    "brand": "Ampol Foodary",
    "address": "67 Shepherds Dr, CHERRYBROOK NSW 2126",
    "lat": -33.720696,
    "lng": 151.045165,
    "prices": [
      {
        "fuel_type": "E10",
        "price": 225.9
      },
      {
        "fuel_type": "P95",
        "price": 243.9
      },
      {
        "fuel_type": "P98",
        "price": 252.9
      },
      {
        "fuel_type": "PDL",
        "price": 311.4
      },
      {
        "fuel_type": "U91",
        "price": 227.9
      }
    ],
    "source": "fuelcheck"
  },
  {
    "id": "2338",
    "name": "Ampol Foodary Ermington",
    "brand": "Ampol Foodary",
    "address": "560-562 Victoria Road, ERMINGTON NSW 2115",
    "lat": -33.81396,
    "lng": 151.054799,
    "prices": [
      {
        "fuel_type": "P95",
        "price": 243.9
      },
      {
        "fuel_type": "P98",
        "price": 252.9
      },
      {
        "fuel_type": "PDL",
        "price": 312.4
      },
      {
        "fuel_type": "U91",
        "price": 227.9
      }
    ],
    "source": "fuelcheck"
  },
  {
    "id": "2349",
    "name": "Ampol Foodary Kensington",
    "brand": "Ampol Foodary",
    "address": "211-213 Anzac Parade, KENSINGTON NSW 2033",
    "lat": -33.91465,
    "lng": 151.225163,
    "prices": [
      {
        "fuel_type": "E10",
        "price": 225.9
      },
      {
        "fuel_type": "P95",
        "price": 243.9
      },
      {
        "fuel_type": "P98",
        "price": 252.9
      },
      {
        "fuel_type": "PDL",
        "price": 310.4
      },
      {
        "fuel_type": "U91",
        "price": 227.9
      }
    ],
    "source": "fuelcheck"
  },
  {
    "id": "2356",
    "name": "Ampol Foodary Lakemba",
    "brand": "Ampol Foodary",
    "address": "516 Punchbowl Rd, LAKEMBA NSW 2195",
    "lat": -33.911622,
    "lng": 151.073203,
    "prices": [
      {
        "fuel_type": "E10",
        "price": 225.9
      },
      {
        "fuel_type": "P95",
        "price": 243.9
      },
      {
        "fuel_type": "P98",
        "price": 252.9
      },
      {
        "fuel_type": "PDL",
        "price": 306.4
      },
      {
        "fuel_type": "U91",
        "price": 227.9
      }
    ],
    "source": "fuelcheck"
  },
  {
    "id": "2362",
    "name": "Ampol Foodary Carlingford",
    "brand": "Ampol Foodary",
    "address": "131 Pennant Hills Rd, CARLINGFORD NSW 2118",
    "lat": -33.787648,
    "lng": 151.027913,
    "prices": [
      {
        "fuel_type": "E10",
        "price": 225.9
      },
      {
        "fuel_type": "P95",
        "price": 243.9
      },
      {
        "fuel_type": "P98",
        "price": 252.9
      },
      {
        "fuel_type": "PDL",
        "price": 297.4
      },
      {
        "fuel_type": "U91",
        "price": 227.9
      }
    ],
    "source": "fuelcheck"
  },
  {
    "id": "2364",
    "name": "Ampol Foodary Kellyville",
    "brand": "Ampol Foodary",
    "address": "3-5 Windsor Rd, KELLYVILLE NSW 2155",
    "lat": -33.714327,
    "lng": 150.960633,
    "prices": [
      {
        "fuel_type": "E10",
        "price": 225.9
      },
      {
        "fuel_type": "P95",
        "price": 243.9
      },
      {
        "fuel_type": "P98",
        "price": 252.9
      },
      {
        "fuel_type": "PDL",
        "price": 312.4
      },
      {
        "fuel_type": "U91",
        "price": 227.9
      }
    ],
    "source": "fuelcheck"
  },
  {
    "id": "2374",
    "name": "Ampol Foodary Granville",
    "brand": "Ampol Foodary",
    "address": "144 Parramatta Rd, GRANVILLE NSW 2142",
    "lat": -33.830266,
    "lng": 151.010762,
    "prices": [
      {
        "fuel_type": "E10",
        "price": 225.9
      },
      {
        "fuel_type": "P95",
        "price": 243.9
      },
      {
        "fuel_type": "P98",
        "price": 252.9
      },
      {
        "fuel_type": "PDL",
        "price": 304.4
      },
      {
        "fuel_type": "U91",
        "price": 227.9
      }
    ],
    "source": "fuelcheck"
  },
  {
    "id": "2436",
    "name": "Ampol Foodary Waitara",
    "brand": "Ampol Foodary",
    "address": "59-61 Pacific Highway, WAITARA NSW 2077",
    "lat": -33.710531,
    "lng": 151.102447,
    "prices": [
      {
        "fuel_type": "P95",
        "price": 243.9
      },
      {
        "fuel_type": "P98",
        "price": 252.9
      },
      {
        "fuel_type": "PDL",
        "price": 314.4
      },
      {
        "fuel_type": "U91",
        "price": 227.9
      }
    ],
    "source": "fuelcheck"
  },
  {
    "id": "2439",
    "name": "United Terrey HILLS",
    "brand": "United",
    "address": "43 Booralie Rd, TERREY HILLS NSW 2084",
    "lat": -33.680181,
    "lng": 151.225022,
    "prices": [
      {
        "fuel_type": "DL",
        "price": 304.9
      },
      {
        "fuel_type": "E10",
        "price": 221.5
      },
      {
        "fuel_type": "E85",
        "price": 249.9
      },
      {
        "fuel_type": "P95",
        "price": 237.5
      },
      {
        "fuel_type": "P98",
        "price": 247.5
      },
      {
        "fuel_type": "U91",
        "price": 223.5
      }
    ],
    "source": "fuelcheck"
  },
  {
    "id": "2440",
    "name": "Ampol Foodary Randwick",
    "brand": "Ampol Foodary",
    "address": "2 Alison Rd, RANDWICK NSW 2031",
    "lat": -33.906604,
    "lng": 151.232031,
    "prices": [
      {
        "fuel_type": "E10",
        "price": 225.9
      },
      {
        "fuel_type": "P95",
        "price": 243.9
      },
      {
        "fuel_type": "P98",
        "price": 252.9
      },
      {
        "fuel_type": "PDL",
        "price": 310.4
      },
      {
        "fuel_type": "U91",
        "price": 227.9
      }
    ],
    "source": "fuelcheck"
  },
  {
    "id": "2442",
    "name": "Ampol Foodary Wentworthville",
    "brand": "Ampol Foodary",
    "address": "313 Great Western Hwy, SOUTH WENTWORTHVILLE NSW 2145",
    "lat": -33.816223,
    "lng": 150.971793,
    "prices": [
      {
        "fuel_type": "P95",
        "price": 243.9
      },
      {
        "fuel_type": "P98",
        "price": 252.9
      },
      {
        "fuel_type": "PDL",
        "price": 303.4
      }
    ],
    "source": "fuelcheck"
  },
  {
    "id": "2452",
    "name": "Metro Yagoona",
    "brand": "Metro Fuel",
    "address": "585 Hume Hwy, YAGOONA NSW 2199",
    "lat": -33.906106,
    "lng": 151.014058,
    "prices": [
      {
        "fuel_type": "E10",
        "price": 220.7
      },
      {
        "fuel_type": "P95",
        "price": 235.7
      },
      {
        "fuel_type": "P98",
        "price": 245.7
      },
      {
        "fuel_type": "PDL",
        "price": 302.7
      },
      {
        "fuel_type": "U91",
        "price": 222.7
      }
    ],
    "source": "fuelcheck"
  },
  {
    "id": "2460",
    "name": "Metro Petroleum Belmore",
    "brand": "Metro Fuel",
    "address": "442 Punchbowl Rd, BELMORE NSW 2192",
    "lat": -33.907933,
    "lng": 151.076962,
    "prices": [
      {
        "fuel_type": "E10",
        "price": 224.5
      },
      {
        "fuel_type": "P98",
        "price": 246.9
      },
      {
        "fuel_type": "PDL",
        "price": 307.9
      },
      {
        "fuel_type": "U91",
        "price": 226.5
      }
    ],
    "source": "fuelcheck"
  },
  {
    "id": "2608",
    "name": "Ampol Foodary Thornleigh",
    "brand": "Ampol Foodary",
    "address": "200-202 Pennant Hills Road, THORNLEIGH NSW 2120",
    "lat": -33.7266,
    "lng": 151.08363,
    "prices": [
      {
        "fuel_type": "E10",
        "price": 225.9
      },
      {
        "fuel_type": "P95",
        "price": 243.9
      },
      {
        "fuel_type": "P98",
        "price": 252.9
      },
      {
        "fuel_type": "PDL",
        "price": 303.4
      },
      {
        "fuel_type": "U91",
        "price": 227.9
      }
    ],
    "source": "fuelcheck"
  },
  {
    "id": "2711",
    "name": "BP Silverwater South",
    "brand": "BP",
    "address": "51 Egerton St, SILVERWATER NSW 2128",
    "lat": -33.8363055,
    "lng": 151.0478898,
    "prices": [
      {
        "fuel_type": "E10",
        "price": 222.9
      },
      {
        "fuel_type": "LPG",
        "price": 104.9
      },
      {
        "fuel_type": "P98",
        "price": 249.9
      },
      {
        "fuel_type": "PDL",
        "price": 309.9
      },
      {
        "fuel_type": "U91",
        "price": 224.9
      }
    ],
    "source": "fuelcheck"
  },
  {
    "id": "2714",
    "name": "Speedway Cammeray",
    "brand": "Speedway",
    "address": "330 Miller St, CAMMERAY NSW 2062",
    "lat": -33.8287134,
    "lng": 151.2088097,
    "prices": [
      {
        "fuel_type": "DL",
        "price": 306.9
      },
      {
        "fuel_type": "P98",
        "price": 252.9
      },
      {
        "fuel_type": "U91",
        "price": 227.9
      }
    ],
    "source": "fuelcheck"
  },
  {
    "id": "8282",
    "name": "Speedway South Granville",
    "brand": "Speedway",
    "address": "171 Clyde St, SOUTH GRANVILLE NSW 2142",
    "lat": -33.8474647,
    "lng": 151.0129202,
    "prices": [
      {
        "fuel_type": "DL",
        "price": 310.5
      },
      {
        "fuel_type": "E10",
        "price": 220.5
      },
      {
        "fuel_type": "P98",
        "price": 247.5
      },
      {
        "fuel_type": "U91",
        "price": 222.5
      }
    ],
    "source": "fuelcheck"
  },
  {
    "id": "16908",
    "name": "Ampol Foodary Merrylands",
    "brand": "Ampol Foodary",
    "address": "150 Woodville Rd, MERRYLANDS NSW 2160",
    "lat": -33.838025,
    "lng": 150.99969,
    "prices": [
      {
        "fuel_type": "E10",
        "price": 225.9
      },
      {
        "fuel_type": "P95",
        "price": 243.9
      },
      {
        "fuel_type": "P98",
        "price": 252.9
      },
      {
        "fuel_type": "PDL",
        "price": 296.4
      },
      {
        "fuel_type": "U91",
        "price": 227.9
      }
    ],
    "source": "fuelcheck"
  },
  {
    "id": "16909",
    "name": "Ampol Foodary Alexandria",
    "brand": "Ampol Foodary",
    "address": "133 Wyndham Street, ALEXANDRIA NSW 2015",
    "lat": -33.902032,
    "lng": 151.200054,
    "prices": [
      {
        "fuel_type": "E10",
        "price": 225.9
      },
      {
        "fuel_type": "EV",
        "price": 0.0
      },
      {
        "fuel_type": "P95",
        "price": 243.9
      },
      {
        "fuel_type": "P98",
        "price": 252.9
      },
      {
        "fuel_type": "PDL",
        "price": 303.4
      },
      {
        "fuel_type": "U91",
        "price": 227.9
      }
    ],
    "source": "fuelcheck"
  },
  {
    "id": "16915",
    "name": "Ampol Foodary Lansvale",
    "brand": "Ampol Foodary",
    "address": "141-151 Hume Highway Cnr Chadderton St, LANSVALE NSW 2166",
    "lat": -33.894328,
    "lng": 150.957208,
    "prices": [
      {
        "fuel_type": "P95",
        "price": 243.9
      },
      {
        "fuel_type": "P98",
        "price": 252.9
      },
      {
        "fuel_type": "PDL",
        "price": 300.4
      },
      {
        "fuel_type": "U91",
        "price": 227.9
      }
    ],
    "source": "fuelcheck"
  },
  {
    "id": "16916",
    "name": "Ampol Foodary Cabramatta",
    "brand": "Ampol Foodary",
    "address": "166 John St, CABRAMATTA NSW 2166",
    "lat": -33.8942945,
    "lng": 150.9280257,
    "prices": [
      {
        "fuel_type": "E10",
        "price": 225.9
      },
      {
        "fuel_type": "P98",
        "price": 252.9
      },
      {
        "fuel_type": "U91",
        "price": 227.9
      }
    ],
    "source": "fuelcheck"
  },
  {
    "id": "16924",
    "name": "Budget Petrol Chippendale",
    "brand": "Budget",
    "address": "66-70 Regent Street, CHIPPENDALE NSW 2008",
    "lat": -33.8878,
    "lng": 151.2017441,
    "prices": [
      {
        "fuel_type": "P95",
        "price": 239.7
      },
      {
        "fuel_type": "P98",
        "price": 249.7
      },
      {
        "fuel_type": "PDL",
        "price": 309.7
      },
      {
        "fuel_type": "U91",
        "price": 223.7
      }
    ],
    "source": "fuelcheck"
  },
  {
    "id": "17119",
    "name": "7-Eleven Camperdown",
    "brand": "7-Eleven",
    "address": "198 Parramatta Rd, CAMPERDOWN NSW 2050",
    "lat": -33.886973,
    "lng": 151.174134,
    "prices": [
      {
        "fuel_type": "E10",
        "price": 221.9
      },
      {
        "fuel_type": "P95",
        "price": 242.9
      },
      {
        "fuel_type": "P98",
        "price": 252.9
      },
      {
        "fuel_type": "PDL",
        "price": 304.9
      },
      {
        "fuel_type": "U91",
        "price": 223.9
      }
    ],
    "source": "fuelcheck"
  },
  {
    "id": "17121",
    "name": "7-Eleven Paddington",
    "brand": "7-Eleven",
    "address": "Cnr Oxford St & Greens Rd, PADDINGTON NSW 2021",
    "lat": -33.883242,
    "lng": 151.220641,
    "prices": [
      {
        "fuel_type": "E10",
        "price": 227.9
      },
      {
        "fuel_type": "LPG",
        "price": 109.9
      },
      {
        "fuel_type": "P95",
        "price": 244.9
      },
      {
        "fuel_type": "P98",
        "price": 253.9
      },
      {
        "fuel_type": "PDL",
        "price": 304.9
      },
      {
        "fuel_type": "U91",
        "price": 229.9
      }
    ],
    "source": "fuelcheck"
  },
  {
    "id": "17134",
    "name": "7-Eleven Greenacre",
    "brand": "7-Eleven",
    "address": "301 Hume Hwy, GREENACRE NSW 2190",
    "lat": -33.9052467,
    "lng": 151.0418668,
    "prices": [
      {
        "fuel_type": "E10",
        "price": 227.9
      },
      {
        "fuel_type": "LPG",
        "price": 127.9
      },
      {
        "fuel_type": "P95",
        "price": 244.9
      },
      {
        "fuel_type": "P98",
        "price": 253.9
      },
      {
        "fuel_type": "PDL",
        "price": 308.9
      },
      {
        "fuel_type": "U91",
        "price": 229.9
      }
    ],
    "source": "fuelcheck"
  },
  {
    "id": "17139",
    "name": "7-Eleven Baulkham Hills",
    "brand": "7-Eleven",
    "address": "217-219 Seven Hills Rd, BAULKHAM HILLS NSW 2153",
    "lat": -33.7555124,
    "lng": 150.963514,
    "prices": [
      {
        "fuel_type": "E10",
        "price": 223.9
      },
      {
        "fuel_type": "P95",
        "price": 242.9
      },
      {
        "fuel_type": "P98",
        "price": 252.9
      },
      {
        "fuel_type": "PDL",
        "price": 307.9
      },
      {
        "fuel_type": "U91",
        "price": 225.9
      }
    ],
    "source": "fuelcheck"
  },
  {
    "id": "17142",
    "name": "7-Eleven Seven Hills",
    "brand": "7-Eleven",
    "address": "151 Prospect Hwy, SEVEN HILLS NSW 2147",
    "lat": -33.7689361,
    "lng": 150.9426804,
    "prices": [
      {
        "fuel_type": "E10",
        "price": 227.9
      },
      {
        "fuel_type": "LPG",
        "price": 109.7
      },
      {
        "fuel_type": "P95",
        "price": 244.9
      },
      {
        "fuel_type": "P98",
        "price": 253.9
      },
      {
        "fuel_type": "PDL",
        "price": 307.9
      },
      {
        "fuel_type": "U91",
        "price": 229.9
      }
    ],
    "source": "fuelcheck"
  },
  {
    "id": "17143",
    "name": "7-Eleven Yagoona",
    "brand": "7-Eleven",
    "address": "519 Hume Hwy, YAGOONA NSW 2199",
    "lat": -33.9076093,
    "lng": 151.0207726,
    "prices": [
      {
        "fuel_type": "E10",
        "price": 227.9
      },
      {
        "fuel_type": "LPG",
        "price": 119.9
      },
      {
        "fuel_type": "P98",
        "price": 253.9
      },
      {
        "fuel_type": "PDL",
        "price": 308.9
      },
      {
        "fuel_type": "U91",
        "price": 229.9
      }
    ],
    "source": "fuelcheck"
  },
  {
    "id": "17146",
    "name": "7-Eleven Five Dock",
    "brand": "7-Eleven",
    "address": "231-235 Great North Road, Five Dock NSW 2046",
    "lat": -33.86491,
    "lng": 151.130081,
    "prices": [
      {
        "fuel_type": "E10",
        "price": 223.9
      },
      {
        "fuel_type": "P95",
        "price": 242.9
      },
      {
        "fuel_type": "P98",
        "price": 252.9
      },
      {
        "fuel_type": "PDL",
        "price": 305.9
      },
      {
        "fuel_type": "U91",
        "price": 225.9
      }
    ],
    "source": "fuelcheck"
  },
  {
    "id": "17147",
    "name": "U-Go Baulkham Hills (Unmanned)",
    "brand": "U-Go",
    "address": "117 Seven Hills Rd, BAULKHAM HILLS NSW 2153",
    "lat": -33.7613952,
    "lng": 150.9750732,
    "prices": [
      {
        "fuel_type": "E10",
        "price": 223.9
      },
      {
        "fuel_type": "P95",
        "price": 241.9
      },
      {
        "fuel_type": "P98",
        "price": 250.8
      },
      {
        "fuel_type": "PDL",
        "price": 301.9
      },
      {
        "fuel_type": "U91",
        "price": 225.9
      }
    ],
    "source": "fuelcheck"
  },
  {
    "id": "17162",
    "name": "Budget Petroleum Smithfield",
    "brand": "Budget",
    "address": "729 The Horsley Dr, SMITHFIELD NSW 2164",
    "lat": -33.8522655,
    "lng": 150.9357342,
    "prices": [
      {
        "fuel_type": "DL",
        "price": 315.9
      },
      {
        "fuel_type": "E10",
        "price": 226.9
      },
      {
        "fuel_type": "LPG",
        "price": 165.9
      },
      {
        "fuel_type": "P98",
        "price": 254.5
      },
      {
        "fuel_type": "U91",
        "price": 228.9
      }
    ],
    "source": "fuelcheck"
  },
  {
    "id": "17165",
    "name": "Ampol Foodary Rydalmere",
    "brand": "Ampol Foodary",
    "address": "309 Victoria Rd, RYDALMERE NSW 2116",
    "lat": -33.8119597,
    "lng": 151.0371167,
    "prices": [
      {
        "fuel_type": "P95",
        "price": 243.9
      },
      {
        "fuel_type": "P98",
        "price": 252.9
      },
      {
        "fuel_type": "PDL",
        "price": 313.4
      },
      {
        "fuel_type": "U91",
        "price": 227.9
      }
    ],
    "source": "fuelcheck"
  },
  {
    "id": "17232",
    "name": "Metro Willoughby",
    "brand": "Metro Fuel",
    "address": "599 Willoughby Rd, WILLOUGHBY NSW 2068",
    "lat": -33.803882,
    "lng": 151.1997448,
    "prices": [
      {
        "fuel_type": "E10",
        "price": 229.9
      },
      {
        "fuel_type": "P98",
        "price": 260.9
      },
      {
        "fuel_type": "PDL",
        "price": 305.9
      }
    ],
    "source": "fuelcheck"
  },
  {
    "id": "17236",
    "name": "Ampol Foodary Guildford",
    "brand": "Ampol Foodary",
    "address": "636-644 Woodville Rd, OLD GUILDFORD NSW 2161",
    "lat": -33.8665036,
    "lng": 150.9881451,
    "prices": [
      {
        "fuel_type": "P95",
        "price": 243.9
      },
      {
        "fuel_type": "P98",
        "price": 252.9
      },
      {
        "fuel_type": "PDL",
        "price": 309.4
      },
      {
        "fuel_type": "U91",
        "price": 227.9
      }
    ],
    "source": "fuelcheck"
  },
  {
    "id": "17240",
    "name": "Metro Fuel",
    "brand": "Metro Fuel",
    "address": "36-38 Lane Cove Rd, RYDE NSW 2112",
    "lat": -33.8075114,
    "lng": 151.1086039,
    "prices": [
      {
        "fuel_type": "E10",
        "price": 219.9
      },
      {
        "fuel_type": "P98",
        "price": 247.9
      },
      {
        "fuel_type": "PDL",
        "price": 307.9
      },
      {
        "fuel_type": "U91",
        "price": 222.9
      }
    ],
    "source": "fuelcheck"
  },
  {
    "id": "17243",
    "name": "NRMA Fast Charger",
    "brand": "NRMA",
    "address": "9 Murray Rose, SYDNEY OLYMPIC PARK NSW 2127",
    "lat": -33.8458976,
    "lng": 151.0697681,
    "prices": [
      {
        "fuel_type": "EV",
        "price": 0.0
      }
    ],
    "source": "fuelcheck"
  },
  {
    "id": "17269",
    "name": "Ampol Foodary Homebush",
    "brand": "Ampol Foodary",
    "address": "334-336 Parramatta Rd, HOMEBUSH WEST NSW 2140",
    "lat": -33.8581667,
    "lng": 151.0681389,
    "prices": [
      {
        "fuel_type": "E10",
        "price": 225.9
      },
      {
        "fuel_type": "P98",
        "price": 252.9
      },
      {
        "fuel_type": "PDL",
        "price": 312.4
      },
      {
        "fuel_type": "U91",
        "price": 227.9
      }
    ],
    "source": "fuelcheck"
  },
  {
    "id": "17270",
    "name": "Speedway Kent Road",
    "brand": "Speedway",
    "address": "38 Kent Rd, NORTH RYDE NSW 2113",
    "lat": -33.7916867,
    "lng": 151.1159807,
    "prices": [
      {
        "fuel_type": "DL",
        "price": 306.5
      },
      {
        "fuel_type": "E10",
        "price": 220.5
      },
      {
        "fuel_type": "P98",
        "price": 249.5
      },
      {
        "fuel_type": "U91",
        "price": 222.5
      }
    ],
    "source": "fuelcheck"
  },
  {
    "id": "17278",
    "name": "EG Ampol Silverwater",
    "brand": "EG Ampol",
    "address": "154 Silverwater Rd, SILVERWATER NSW 2128",
    "lat": -33.8316714,
    "lng": 151.0485448,
    "prices": [
      {
        "fuel_type": "E10",
        "price": 223.9
      },
      {
        "fuel_type": "P95",
        "price": 240.9
      },
      {
        "fuel_type": "P98",
        "price": 249.9
      },
      {
        "fuel_type": "PDL",
        "price": 307.9
      },
      {
        "fuel_type": "U91",
        "price": 225.9
      }
    ],
    "source": "fuelcheck"
  },
  {
    "id": "17288",
    "name": "Xpress fuels",
    "brand": "Independent",
    "address": "134 Brighton Ave, CAMPSIE NSW 2194",
    "lat": -33.9033733,
    "lng": 151.1068754,
    "prices": [
      {
        "fuel_type": "DL",
        "price": 306.9
      },
      {
        "fuel_type": "E10",
        "price": 225.9
      },
      {
        "fuel_type": "P95",
        "price": 242.9
      },
      {
        "fuel_type": "U91",
        "price": 227.9
      }
    ],
    "source": "fuelcheck"
  },
  {
    "id": "17294",
    "name": "Ampol Foodary Woollahra",
    "brand": "Ampol Foodary",
    "address": "116-118 Old South Head Rd, WOOLLAHRA NSW 2025",
    "lat": -33.8896117,
    "lng": 151.2553819,
    "prices": [
      {
        "fuel_type": "P95",
        "price": 243.9
      },
      {
        "fuel_type": "P98",
        "price": 252.9
      },
      {
        "fuel_type": "PDL",
        "price": 303.4
      },
      {
        "fuel_type": "U91",
        "price": 227.9
      }
    ],
    "source": "fuelcheck"
  },
  {
    "id": "17310",
    "name": "Ampol Foodary St Ives North",
    "brand": "Ampol Foodary",
    "address": "363 Mona Vale Road, ST IVES NORTH NSW 2075",
    "lat": -33.716381,
    "lng": 151.173316,
    "prices": [
      {
        "fuel_type": "E10",
        "price": 225.9
      },
      {
        "fuel_type": "P95",
        "price": 243.9
      },
      {
        "fuel_type": "P98",
        "price": 252.9
      },
      {
        "fuel_type": "PDL",
        "price": 312.4
      },
      {
        "fuel_type": "U91",
        "price": 227.9
      }
    ],
    "source": "fuelcheck"
  },
  {
    "id": "17317",
    "name": "7-Eleven Enmore",
    "brand": "7-Eleven",
    "address": "22 Stanmore Street, Enmore NSW 2042",
    "lat": -33.898417,
    "lng": 151.169933,
    "prices": [
      {
        "fuel_type": "E10",
        "price": 221.9
      },
      {
        "fuel_type": "P98",
        "price": 249.9
      },
      {
        "fuel_type": "U91",
        "price": 225.9
      }
    ],
    "source": "fuelcheck"
  },
  {
    "id": "17329",
    "name": "Ampol Foodary Seven Hills",
    "brand": "Ampol Foodary",
    "address": "38 Abbott Rd, SEVEN HILLS NSW 2147",
    "lat": -33.7669285,
    "lng": 150.9548252,
    "prices": [
      {
        "fuel_type": "E10",
        "price": 225.9
      },
      {
        "fuel_type": "P95",
        "price": 243.9
      },
      {
        "fuel_type": "P98",
        "price": 252.9
      },
      {
        "fuel_type": "PDL",
        "price": 304.4
      }
    ],
    "source": "fuelcheck"
  },
  {
    "id": "17341",
    "name": "Randwick Petroleum",
    "brand": "Independent",
    "address": "88 Clovelly Rd, RANDWICK NSW 2031",
    "lat": -33.9091412,
    "lng": 151.2486257,
    "prices": [
      {
        "fuel_type": "P98",
        "price": 247.4
      },
      {
        "fuel_type": "PDL",
        "price": 307.4
      },
      {
        "fuel_type": "U91",
        "price": 223.4
      }
    ],
    "source": "fuelcheck"
  },
  {
    "id": "17345",
    "name": "BP Fairfield",
    "brand": "BP",
    "address": "183 The Horsley Drive, FAIRFIELD EAST NSW 2165",
    "lat": -33.87784,
    "lng": 150.966162,
    "prices": [
      {
        "fuel_type": "DL",
        "price": 303.8
      },
      {
        "fuel_type": "P95",
        "price": 235.8
      },
      {
        "fuel_type": "P98",
        "price": 245.8
      },
      {
        "fuel_type": "PDL",
        "price": 305.8
      },
      {
        "fuel_type": "U91",
        "price": 215.8
      }
    ],
    "source": "fuelcheck"
  },
  {
    "id": "17362",
    "name": "Ampol Foodary Croydon",
    "brand": "Ampol Foodary",
    "address": "404-410 Liverpool Rd, CROYDON NSW 2132",
    "lat": -33.8884725,
    "lng": 151.1157289,
    "prices": [
      {
        "fuel_type": "E10",
        "price": 225.9
      },
      {
        "fuel_type": "P95",
        "price": 243.9
      },
      {
        "fuel_type": "P98",
        "price": 252.9
      },
      {
        "fuel_type": "U91",
        "price": 227.9
      }
    ],
    "source": "fuelcheck"
  },
  {
    "id": "17581",
    "name": "Ampol Foodary Five Dock",
    "brand": "Ampol Foodary",
    "address": "Ramsay Rd & Fairlight Street, FIVE DOCK NSW 2046",
    "lat": -33.870023,
    "lng": 151.130434,
    "prices": [
      {
        "fuel_type": "E10",
        "price": 225.9
      },
      {
        "fuel_type": "P95",
        "price": 243.9
      },
      {
        "fuel_type": "P98",
        "price": 252.9
      },
      {
        "fuel_type": "PDL",
        "price": 313.4
      },
      {
        "fuel_type": "U91",
        "price": 227.9
      }
    ],
    "source": "fuelcheck"
  },
  {
    "id": "17776",
    "name": "BP CLOVELLY",
    "brand": "BP",
    "address": "33-37 Carrington Rd, RANDWICK NSW 2031",
    "lat": -33.9065066,
    "lng": 151.2525812,
    "prices": [
      {
        "fuel_type": "E10",
        "price": 225.7
      },
      {
        "fuel_type": "P98",
        "price": 253.7
      },
      {
        "fuel_type": "PDL",
        "price": 308.5
      },
      {
        "fuel_type": "U91",
        "price": 227.7
      }
    ],
    "source": "fuelcheck"
  },
  {
    "id": "17806",
    "name": "Budget Petrol Lewisham",
    "brand": "Budget",
    "address": "204-208 New Canterbury Rd, LEWISHAM NSW 2049",
    "lat": -33.8970975,
    "lng": 151.1490284,
    "prices": [
      {
        "fuel_type": "E10",
        "price": 227.7
      },
      {
        "fuel_type": "E85",
        "price": 475.0
      },
      {
        "fuel_type": "LPG",
        "price": 99.7
      },
      {
        "fuel_type": "P95",
        "price": 244.7
      },
      {
        "fuel_type": "P98",
        "price": 251.7
      },
      {
        "fuel_type": "PDL",
        "price": 309.7
      },
      {
        "fuel_type": "U91",
        "price": 230.7
      }
    ],
    "source": "fuelcheck"
  },
  {
    "id": "17975",
    "name": "BP FOX HILLS",
    "brand": "BP",
    "address": "152 Toongabbie Rd, GIRRAWEEN NSW 2145",
    "lat": -33.7956395,
    "lng": 150.9390745,
    "prices": [
      {
        "fuel_type": "P98",
        "price": 284.9
      },
      {
        "fuel_type": "PDL",
        "price": 321.9
      },
      {
        "fuel_type": "U91",
        "price": 259.9
      }
    ],
    "source": "fuelcheck"
  },
  {
    "id": "17977",
    "name": "Coles Express Lansvale West",
    "brand": "Coles Express",
    "address": "240 Hume Highway, LANSVALE NSW 2166",
    "lat": -33.89796,
    "lng": 150.952614,
    "prices": [
      {
        "fuel_type": "E10",
        "price": 221.5
      },
      {
        "fuel_type": "P95",
        "price": 241.0
      },
      {
        "fuel_type": "P98",
        "price": 250.5
      },
      {
        "fuel_type": "U91",
        "price": 223.5
      }
    ],
    "source": "fuelcheck"
  },
  {
    "id": "17991",
    "name": "Metro Wakeley",
    "brand": "Metro Fuel",
    "address": "72 Thorney Rd, FAIRFIELD WEST NSW 2165",
    "lat": -33.8736677,
    "lng": 150.9241934,
    "prices": [
      {
        "fuel_type": "E10",
        "price": 226.5
      },
      {
        "fuel_type": "P98",
        "price": 254.5
      },
      {
        "fuel_type": "PDL",
        "price": 309.5
      },
      {
        "fuel_type": "U91",
        "price": 228.5
      }
    ],
    "source": "fuelcheck"
  },
  {
    "id": "18000",
    "name": "BUDGET PETROL ASHFIELD",
    "brand": "Budget",
    "address": "22 Charlotte Street, ASHFIELD NSW 2131",
    "lat": -33.8864781,
    "lng": 151.1253217,
    "prices": [
      {
        "fuel_type": "E10",
        "price": 223.9
      },
      {
        "fuel_type": "P95",
        "price": 253.9
      },
      {
        "fuel_type": "PDL",
        "price": 305.9
      },
      {
        "fuel_type": "U91",
        "price": 227.9
      }
    ],
    "source": "fuelcheck"
  },
  {
    "id": "18009",
    "name": "BOBBIN HEAD PETROL STATION",
    "brand": "Independent",
    "address": "313 Bobbin Head Road, NORTH TURRAMURRA NSW 2074",
    "lat": -33.7088474,
    "lng": 151.1482707,
    "prices": [
      {
        "fuel_type": "DL",
        "price": 304.9
      },
      {
        "fuel_type": "E10",
        "price": 223.9
      },
      {
        "fuel_type": "P98",
        "price": 249.9
      },
      {
        "fuel_type": "U91",
        "price": 225.9
      }
    ],
    "source": "fuelcheck"
  },
  {
    "id": "18067",
    "name": "BP RANDWICK",
    "brand": "BP",
    "address": "8-10 Perouse Road, RANDWICK NSW 2031",
    "lat": -33.91899,
    "lng": 151.2421524,
    "prices": [
      {
        "fuel_type": "E10",
        "price": 225.7
      },
      {
        "fuel_type": "P98",
        "price": 249.7
      },
      {
        "fuel_type": "PDL",
        "price": 307.5
      },
      {
        "fuel_type": "U91",
        "price": 227.7
      }
    ],
    "source": "fuelcheck"
  },
  {
    "id": "18099",
    "name": "BP CONCORD",
    "brand": "BP",
    "address": "20 Burwood Road, CONCORD NSW 2137",
    "lat": -33.8675406,
    "lng": 151.1053024,
    "prices": [
      {
        "fuel_type": "E10",
        "price": 221.5
      },
      {
        "fuel_type": "P95",
        "price": 244.5
      },
      {
        "fuel_type": "P98",
        "price": 253.5
      },
      {
        "fuel_type": "PDL",
        "price": 307.7
      },
      {
        "fuel_type": "U91",
        "price": 223.5
      }
    ],
    "source": "fuelcheck"
  },
  {
    "id": "18141",
    "name": "Gas to connect",
    "brand": "Independent",
    "address": "54c Fairfield Road, GUILDFORD WEST NSW 2161",
    "lat": -33.8472109,
    "lng": 150.9623342,
    "prices": [
      {
        "fuel_type": "DL",
        "price": 319.9
      },
      {
        "fuel_type": "E10",
        "price": 221.9
      },
      {
        "fuel_type": "P98",
        "price": 253.9
      },
      {
        "fuel_type": "U91",
        "price": 223.9
      }
    ],
    "source": "fuelcheck"
  },
  {
    "id": "18146",
    "name": "Supreme Petroleum Guildford",
    "brand": "Supreme Fuel",
    "address": "210 Guildford Road, GUILDFORD NSW 2161",
    "lat": -33.8551791,
    "lng": 150.9909269,
    "prices": [
      {
        "fuel_type": "E10",
        "price": 225.5
      },
      {
        "fuel_type": "P95",
        "price": 249.5
      },
      {
        "fuel_type": "P98",
        "price": 258.5
      },
      {
        "fuel_type": "PDL",
        "price": 295.9
      },
      {
        "fuel_type": "U91",
        "price": 227.5
      }
    ],
    "source": "fuelcheck"
  },
  {
    "id": "18164",
    "name": "Prime Earlwood",
    "brand": "Prime",
    "address": "33 Wardell Road, EARLWOOD NSW 2206",
    "lat": -33.9159977,
    "lng": 151.1335999,
    "prices": [
      {
        "fuel_type": "E85",
        "price": 475.0
      },
      {
        "fuel_type": "P98",
        "price": 247.5
      },
      {
        "fuel_type": "PDL",
        "price": 309.5
      },
      {
        "fuel_type": "U91",
        "price": 227.5
      }
    ],
    "source": "fuelcheck"
  },
  {
    "id": "18171",
    "name": "North Ryde Petroleum",
    "brand": "Independent",
    "address": "118 Coxs Rd, North Ryde NSW 2113",
    "lat": -33.80141,
    "lng": 151.13036,
    "prices": [
      {
        "fuel_type": "P95",
        "price": 243.7
      },
      {
        "fuel_type": "PDL",
        "price": 304.7
      },
      {
        "fuel_type": "U91",
        "price": 223.4
      }
    ],
    "source": "fuelcheck"
  },
  {
    "id": "18172",
    "name": "Metro Guildford",
    "brand": "Metro Fuel",
    "address": "2 Rawson Road, GUILDFORD NSW 2161",
    "lat": -33.8636594,
    "lng": 151.0088717,
    "prices": [
      {
        "fuel_type": "DL",
        "price": 309.9
      },
      {
        "fuel_type": "E10",
        "price": 220.9
      },
      {
        "fuel_type": "P98",
        "price": 247.9
      },
      {
        "fuel_type": "U91",
        "price": 222.9
      }
    ],
    "source": "fuelcheck"
  },
  {
    "id": "18201",
    "name": "7-Eleven Greystanes",
    "brand": "7-Eleven",
    "address": "601-605 Great Western Highway, GREYSTANES NSW 2145",
    "lat": -33.808609,
    "lng": 150.9359412,
    "prices": [
      {
        "fuel_type": "E10",
        "price": 225.9
      },
      {
        "fuel_type": "P95",
        "price": 242.9
      },
      {
        "fuel_type": "P98",
        "price": 251.9
      },
      {
        "fuel_type": "PDL",
        "price": 304.9
      },
      {
        "fuel_type": "U91",
        "price": 227.9
      }
    ],
    "source": "fuelcheck"
  },
  {
    "id": "18232",
    "name": "SPEEDWAY SACKVILLE STREET FAIRFIELD",
    "brand": "Speedway",
    "address": "115 Sackville Street, FAIRFIELD NSW 2165",
    "lat": -33.8727231,
    "lng": 150.9452203,
    "prices": [
      {
        "fuel_type": "DL",
        "price": 310.5
      },
      {
        "fuel_type": "E10",
        "price": 220.5
      },
      {
        "fuel_type": "P98",
        "price": 247.5
      },
      {
        "fuel_type": "U91",
        "price": 222.5
      }
    ],
    "source": "fuelcheck"
  },
  {
    "id": "18249",
    "name": "Ampol Foodary Crows Nest",
    "brand": "Ampol Foodary",
    "address": "111-121 Falcon Street, CROWS NEST NSW 2065",
    "lat": -33.8286801,
    "lng": 151.2060304,
    "prices": [
      {
        "fuel_type": "E10",
        "price": 225.9
      },
      {
        "fuel_type": "P95",
        "price": 243.9
      },
      {
        "fuel_type": "P98",
        "price": 252.9
      },
      {
        "fuel_type": "PDL",
        "price": 312.4
      },
      {
        "fuel_type": "U91",
        "price": 227.9
      }
    ],
    "source": "fuelcheck"
  },
  {
    "id": "18253",
    "name": "Ampol Foodary St Ives",
    "brand": "Ampol Foodary",
    "address": "164 Mona Vale Road, ST IVES NSW 2075",
    "lat": -33.7307318,
    "lng": 151.157048,
    "prices": [
      {
        "fuel_type": "E10",
        "price": 225.9
      },
      {
        "fuel_type": "P95",
        "price": 243.9
      },
      {
        "fuel_type": "P98",
        "price": 252.9
      },
      {
        "fuel_type": "PDL",
        "price": 303.4
      },
      {
        "fuel_type": "U91",
        "price": 227.9
      }
    ],
    "source": "fuelcheck"
  },
  {
    "id": "18264",
    "name": "Ampol Foodary Lane Cove West",
    "brand": "Ampol Foodary",
    "address": "UNIT 1 237-245 BURNS BAY RD, LANE COVE WEST NSW 2066",
    "lat": -33.816452,
    "lng": 151.1513941,
    "prices": [
      {
        "fuel_type": "E10",
        "price": 225.9
      },
      {
        "fuel_type": "P95",
        "price": 243.9
      },
      {
        "fuel_type": "P98",
        "price": 252.9
      },
      {
        "fuel_type": "PDL",
        "price": 300.4
      },
      {
        "fuel_type": "U91",
        "price": 227.9
      }
    ],
    "source": "fuelcheck"
  },
  {
    "id": "18285",
    "name": "Ampol Foodary Coogee",
    "brand": "Ampol Foodary",
    "address": "146-148 COOGEE BAY RD, COOGEE NSW 2034",
    "lat": -33.9198931,
    "lng": 151.2517479,
    "prices": [
      {
        "fuel_type": "E10",
        "price": 225.9
      },
      {
        "fuel_type": "P95",
        "price": 243.9
      },
      {
        "fuel_type": "PDL",
        "price": 310.4
      },
      {
        "fuel_type": "U91",
        "price": 227.9
      }
    ],
    "source": "fuelcheck"
  },
  {
    "id": "18286",
    "name": "Metro Petroleum Epping",
    "brand": "Metro Fuel",
    "address": "30 BRIDGE ST, EPPING NSW 2121",
    "lat": -33.7748061,
    "lng": 151.0797363,
    "prices": [
      {
        "fuel_type": "P95",
        "price": 235.9
      },
      {
        "fuel_type": "P98",
        "price": 245.9
      },
      {
        "fuel_type": "PDL",
        "price": 309.9
      },
      {
        "fuel_type": "U91",
        "price": 223.9
      }
    ],
    "source": "fuelcheck"
  },
  {
    "id": "18342",
    "name": "SHELL Parramatta CVRO (Self-serve)",
    "brand": "Shell",
    "address": "1 DURHAM ST, ROSEHILL NSW 2142",
    "lat": -33.82410264,
    "lng": 151.03733463,
    "prices": [
      {
        "fuel_type": "DL",
        "price": 296.9
      }
    ],
    "source": "fuelcheck"
  },
  {
    "id": "18357",
    "name": "Speedway Cabramatta",
    "brand": "Speedway",
    "address": "267 John St, CABRAMATTA WEST NSW 2166",
    "lat": -33.89235,
    "lng": 150.91774,
    "prices": [
      {
        "fuel_type": "DL",
        "price": 309.5
      },
      {
        "fuel_type": "E10",
        "price": 220.5
      },
      {
        "fuel_type": "P98",
        "price": 247.5
      },
      {
        "fuel_type": "U91",
        "price": 222.5
      }
    ],
    "source": "fuelcheck"
  },
  {
    "id": "18422",
    "name": "Speedway Roseville",
    "brand": "Speedway",
    "address": "20-22 BABBAGE RD, ROSEVILLE NSW 2069",
    "lat": -33.7780213,
    "lng": 151.1945551,
    "prices": [
      {
        "fuel_type": "E10",
        "price": 220.5
      },
      {
        "fuel_type": "P98",
        "price": 259.5
      },
      {
        "fuel_type": "PDL",
        "price": 309.5
      },
      {
        "fuel_type": "U91",
        "price": 222.5
      }
    ],
    "source": "fuelcheck"
  },
  {
    "id": "18424",
    "name": "Ampol Foodary Belrose",
    "brand": "Ampol Foodary",
    "address": "153 Forest Way, Belrose NSW 2085",
    "lat": -33.734678,
    "lng": 151.221102,
    "prices": [
      {
        "fuel_type": "E10",
        "price": 225.9
      },
      {
        "fuel_type": "P95",
        "price": 243.9
      },
      {
        "fuel_type": "P98",
        "price": 252.9
      },
      {
        "fuel_type": "PDL",
        "price": 310.4
      },
      {
        "fuel_type": "U91",
        "price": 227.9
      }
    ],
    "source": "fuelcheck"
  },
  {
    "id": "18433",
    "name": "Metro Petroleum Toongabbie",
    "brand": "Metro Fuel",
    "address": "59 THE CRESCENT, TOONGABBIE NSW 2146",
    "lat": -33.7959541,
    "lng": 150.9297948,
    "prices": [
      {
        "fuel_type": "E10",
        "price": 225.9
      },
      {
        "fuel_type": "P98",
        "price": 249.9
      },
      {
        "fuel_type": "PDL",
        "price": 317.9
      },
      {
        "fuel_type": "U91",
        "price": 227.9
      }
    ],
    "source": "fuelcheck"
  },
  {
    "id": "18444",
    "name": "BP Smithfield NSW",
    "brand": "BP",
    "address": "846 THE HORSLEY DRIVE, SMITHFIELD NSW 2164",
    "lat": -33.8515694,
    "lng": 150.9256841,
    "prices": [
      {
        "fuel_type": "E10",
        "price": 239.9
      },
      {
        "fuel_type": "P98",
        "price": 269.9
      },
      {
        "fuel_type": "U91",
        "price": 242.9
      }
    ],
    "source": "fuelcheck"
  },
  {
    "id": "18447",
    "name": "Ampol Foodary Greenacre",
    "brand": "Ampol Foodary",
    "address": "87-91 ROBERTS RD, GREENACRE NSW 2190",
    "lat": -33.9046146,
    "lng": 151.0648619,
    "prices": [
      {
        "fuel_type": "DL",
        "price": 307.9
      },
      {
        "fuel_type": "P98",
        "price": 252.9
      },
      {
        "fuel_type": "PDL",
        "price": 310.9
      },
      {
        "fuel_type": "U91",
        "price": 227.9
      }
    ],
    "source": "fuelcheck"
  },
  {
    "id": "18468",
    "name": "Speedway Court Road",
    "brand": "Speedway",
    "address": "32 COURT RD, FAIRFIELD NSW 2165",
    "lat": -33.8701219,
    "lng": 150.9581328,
    "prices": [
      {
        "fuel_type": "DL",
        "price": 310.5
      },
      {
        "fuel_type": "E10",
        "price": 220.5
      },
      {
        "fuel_type": "P98",
        "price": 247.5
      },
      {
        "fuel_type": "PDL",
        "price": 315.5
      },
      {
        "fuel_type": "U91",
        "price": 222.5
      }
    ],
    "source": "fuelcheck"
  },
  {
    "id": "18492",
    "name": "METRO ROZELLE",
    "brand": "Metro Fuel",
    "address": "127 VICTORIA RD, ROZELLE NSW 2039",
    "lat": -33.8620438,
    "lng": 151.1676701,
    "prices": [
      {
        "fuel_type": "E10",
        "price": 220.7
      },
      {
        "fuel_type": "P98",
        "price": 248.7
      },
      {
        "fuel_type": "PDL",
        "price": 307.7
      },
      {
        "fuel_type": "U91",
        "price": 222.7
      }
    ],
    "source": "fuelcheck"
  },
  {
    "id": "18514",
    "name": "Shell Lane Cove",
    "brand": "Shell",
    "address": "254 BURNS BAY RD, LANE COVE NSW 2066",
    "lat": -33.8171912,
    "lng": 151.1518756,
    "prices": [
      {
        "fuel_type": "P95",
        "price": 239.0
      },
      {
        "fuel_type": "P98",
        "price": 248.5
      },
      {
        "fuel_type": "PDL",
        "price": 309.9
      },
      {
        "fuel_type": "U91",
        "price": 223.5
      }
    ],
    "source": "fuelcheck"
  },
  {
    "id": "18533",
    "name": "Metro Canley Heights",
    "brand": "Metro Fuel",
    "address": "190 CANLEY VALE RD, CANLEY HEIGHTS NSW 2166",
    "lat": -33.8845269,
    "lng": 150.928557,
    "prices": [
      {
        "fuel_type": "E10",
        "price": 227.9
      },
      {
        "fuel_type": "P98",
        "price": 254.9
      },
      {
        "fuel_type": "PDL",
        "price": 309.9
      },
      {
        "fuel_type": "U91",
        "price": 229.9
      }
    ],
    "source": "fuelcheck"
  },
  {
    "id": "18548",
    "name": "Shell Kenthurst",
    "brand": "Shell",
    "address": "86 KENTHURST RD, KENTHURST NSW 2156",
    "lat": -33.6823514,
    "lng": 151.0107027,
    "prices": [
      {
        "fuel_type": "DL",
        "price": 306.9
      },
      {
        "fuel_type": "E10",
        "price": 221.9
      },
      {
        "fuel_type": "P98",
        "price": 249.9
      },
      {
        "fuel_type": "PDL",
        "price": 306.9
      },
      {
        "fuel_type": "U91",
        "price": 223.9
      }
    ],
    "source": "fuelcheck"
  },
  {
    "id": "18584",
    "name": "Shell Croydon",
    "brand": "Shell",
    "address": "418-424 LIVERPOOL RD, CROYDON NSW 2132",
    "lat": -33.888152,
    "lng": 151.1150622,
    "prices": [
      {
        "fuel_type": "E10",
        "price": 224.9
      },
      {
        "fuel_type": "P98",
        "price": 246.9
      },
      {
        "fuel_type": "PDL",
        "price": 307.9
      },
      {
        "fuel_type": "U91",
        "price": 226.9
      }
    ],
    "source": "fuelcheck"
  },
  {
    "id": "18609",
    "name": "Jack & Co Lane Cove",
    "brand": "Independent",
    "address": "203 BURNS BAY RD, LANE COVE NSW 2066",
    "lat": -33.814598,
    "lng": 151.1543531,
    "prices": [
      {
        "fuel_type": "E10",
        "price": 229.5
      },
      {
        "fuel_type": "P98",
        "price": 259.5
      },
      {
        "fuel_type": "PDL",
        "price": 309.5
      },
      {
        "fuel_type": "U91",
        "price": 233.5
      }
    ],
    "source": "fuelcheck"
  },
  {
    "id": "18616",
    "name": "Metro Fuel Croydon Park",
    "brand": "Metro Fuel",
    "address": "274 GEORGES RIVER RD, CROYDON PARK NSW 2133",
    "lat": -33.8969265,
    "lng": 151.103217,
    "prices": [
      {
        "fuel_type": "E10",
        "price": 224.9
      },
      {
        "fuel_type": "LPG",
        "price": 89.9
      },
      {
        "fuel_type": "P98",
        "price": 246.9
      },
      {
        "fuel_type": "PDL",
        "price": 307.9
      },
      {
        "fuel_type": "U91",
        "price": 226.9
      }
    ],
    "source": "fuelcheck"
  },
  {
    "id": "18628",
    "name": "Enhance Eastwood",
    "brand": "Enhance",
    "address": "2 LOVELL RD, EASTWOOD NSW 2122",
    "lat": -33.7916291,
    "lng": 151.0895436,
    "prices": [
      {
        "fuel_type": "E10",
        "price": 218.9
      },
      {
        "fuel_type": "P98",
        "price": 245.9
      },
      {
        "fuel_type": "PDL",
        "price": 305.9
      },
      {
        "fuel_type": "U91",
        "price": 220.9
      }
    ],
    "source": "fuelcheck"
  },
  {
    "id": "18652",
    "name": "Enhance Camellia",
    "brand": "Enhance",
    "address": "17 GRAND AV, CAMELLIA NSW 2142",
    "lat": -33.820505,
    "lng": 151.0356357,
    "prices": [
      {
        "fuel_type": "DL",
        "price": 325.9
      }
    ],
    "source": "fuelcheck"
  },
  {
    "id": "18658",
    "name": "Budget Petrol Telopea",
    "brand": "Budget",
    "address": "57 ADDERTON RD, TELOPEA NSW 2117",
    "lat": -33.7934764,
    "lng": 151.0412676,
    "prices": [
      {
        "fuel_type": "E10",
        "price": 221.3
      },
      {
        "fuel_type": "P95",
        "price": 239.3
      },
      {
        "fuel_type": "PDL",
        "price": 301.3
      },
      {
        "fuel_type": "U91",
        "price": 223.3
      }
    ],
    "source": "fuelcheck"
  },
  {
    "id": "18670",
    "name": "Metro Petroleum Leichhardt",
    "brand": "Metro Fuel",
    "address": "127-129 MARION ST, LEICHHARDT NSW 2040",
    "lat": -33.8839399,
    "lng": 151.1507793,
    "prices": [
      {
        "fuel_type": "DL",
        "price": 319.9
      },
      {
        "fuel_type": "E10",
        "price": 225.7
      },
      {
        "fuel_type": "P98",
        "price": 269.9
      },
      {
        "fuel_type": "PDL",
        "price": 319.9
      },
      {
        "fuel_type": "U91",
        "price": 229.5
      }
    ],
    "source": "fuelcheck"
  },
  {
    "id": "18692",
    "name": "Medco Petroleum Carlingford",
    "brand": "Independent",
    "address": "286-288 Pennant Hills Road, Cnr Adderton Road, Carlingford NSW 2118",
    "lat": -33.78495,
    "lng": 151.0435,
    "prices": [
      {
        "fuel_type": "DL",
        "price": 297.4
      },
      {
        "fuel_type": "P98",
        "price": 243.5
      },
      {
        "fuel_type": "U91",
        "price": 220.5
      }
    ],
    "source": "fuelcheck"
  },
  {
    "id": "18703",
    "name": "METRO FUEL KILLARNEY HEIGHTS",
    "brand": "Metro Fuel",
    "address": "702-704 WARRINGAH RD, FORESTVILLE NSW 2087",
    "lat": -33.7617609,
    "lng": 151.207051,
    "prices": [
      {
        "fuel_type": "E10",
        "price": 221.9
      },
      {
        "fuel_type": "P98",
        "price": 249.9
      },
      {
        "fuel_type": "PDL",
        "price": 305.9
      },
      {
        "fuel_type": "U91",
        "price": 225.9
      }
    ],
    "source": "fuelcheck"
  },
  {
    "id": "18706",
    "name": "Metro Greenacre",
    "brand": "Metro Fuel",
    "address": "1 DAVID ST, GREENACRE NSW 2190",
    "lat": -33.8964035,
    "lng": 151.0592723,
    "prices": [
      {
        "fuel_type": "DL",
        "price": 307.9
      },
      {
        "fuel_type": "P95",
        "price": 233.9
      },
      {
        "fuel_type": "P98",
        "price": 243.9
      },
      {
        "fuel_type": "PDL",
        "price": 307.9
      },
      {
        "fuel_type": "U91",
        "price": 209.9
      }
    ],
    "source": "fuelcheck"
  },
  {
    "id": "19018",
    "name": "Metro Villawood",
    "brand": "Metro Fuel",
    "address": "276 MILLER RD, VILLAWOOD NSW 2163",
    "lat": -33.8876145,
    "lng": 150.9920889,
    "prices": [
      {
        "fuel_type": "E10",
        "price": 227.8
      },
      {
        "fuel_type": "P95",
        "price": 244.8
      },
      {
        "fuel_type": "P98",
        "price": 249.8
      },
      {
        "fuel_type": "PDL",
        "price": 315.8
      },
      {
        "fuel_type": "U91",
        "price": 229.8
      }
    ],
    "source": "fuelcheck"
  },
  {
    "id": "19637",
    "name": "Metro Petroleum Georges Hall",
    "brand": "Metro Fuel",
    "address": "250 HENRY LAWSON DR, GEORGES HALL NSW 2198",
    "lat": -33.9153425,
    "lng": 150.9749867,
    "prices": [
      {
        "fuel_type": "E10",
        "price": 219.9
      },
      {
        "fuel_type": "P98",
        "price": 252.9
      },
      {
        "fuel_type": "PDL",
        "price": 309.9
      },
      {
        "fuel_type": "U91",
        "price": 221.9
      }
    ],
    "source": "fuelcheck"
  },
  {
    "id": "19642",
    "name": "Metro Petroleum Thornleigh",
    "brand": "Metro Fuel",
    "address": "169-171 PENNANT HILLS RD, THORNLEIGH NSW 2120",
    "lat": -33.7249247,
    "lng": 151.0882611,
    "prices": [
      {
        "fuel_type": "DL",
        "price": 303.9
      },
      {
        "fuel_type": "E10",
        "price": 199.9
      },
      {
        "fuel_type": "P98",
        "price": 247.9
      },
      {
        "fuel_type": "PDL",
        "price": 303.9
      },
      {
        "fuel_type": "U91",
        "price": 220.9
      }
    ],
    "source": "fuelcheck"
  },
  {
    "id": "19784",
    "name": "Metro Petroleum Birrong",
    "brand": "Metro Fuel",
    "address": "158 Auburn Rd, Birrong NSW 2143",
    "lat": -33.89747,
    "lng": 151.02122,
    "prices": [
      {
        "fuel_type": "E10",
        "price": 227.9
      },
      {
        "fuel_type": "P95",
        "price": 245.9
      },
      {
        "fuel_type": "P98",
        "price": 253.9
      },
      {
        "fuel_type": "PDL",
        "price": 309.9
      },
      {
        "fuel_type": "U91",
        "price": 228.9
      }
    ],
    "source": "fuelcheck"
  },
  {
    "id": "19082",
    "name": "Allianz Centre - Secure Parking",
    "brand": "Everty",
    "address": "186 Sussex St, Sydney NSW 2000",
    "lat": -33.8705978,
    "lng": 151.203956,
    "prices": [
      {
        "fuel_type": "EV",
        "price": 0.0
      }
    ],
    "source": "fuelcheck"
  },
  {
    "id": "19085",
    "name": "Ampol Seven Hills",
    "brand": "Evie Networks",
    "address": "38 Abbott Rd, Seven Hills NSW 2147",
    "lat": -33.7670734,
    "lng": 150.9549733,
    "prices": [
      {
        "fuel_type": "EV",
        "price": 0.0
      }
    ],
    "source": "fuelcheck"
  },
  {
    "id": "19088",
    "name": "Anderson Street Parking/Charging",
    "brand": "Chargefox",
    "address": "370 Anderson St, Chatswood NSW 2067",
    "lat": -33.7964104,
    "lng": 151.1836091,
    "prices": [
      {
        "fuel_type": "EV",
        "price": 0.0
      }
    ],
    "source": "fuelcheck"
  },
  {
    "id": "19093",
    "name": "ATI Australia",
    "brand": "Independent EV",
    "address": "5/27 Mars Rd, Lane Cove West NSW 2066",
    "lat": -33.8093977,
    "lng": 151.1507426,
    "prices": [
      {
        "fuel_type": "EV",
        "price": 0.0
      }
    ],
    "source": "fuelcheck"
  },
  {
    "id": "19096",
    "name": "Audi Centre Sydney",
    "brand": "Chargefox",
    "address": "895 S Dowling St, Zetland NSW 2017",
    "lat": -33.9066374,
    "lng": 151.2132494,
    "prices": [
      {
        "fuel_type": "EV",
        "price": 0.0
      }
    ],
    "source": "fuelcheck"
  },
  {
    "id": "19097",
    "name": "Australasian Sports Centre Parramatta",
    "brand": "Tesla",
    "address": "20 Wentworth St, Clyde NSW 2142",
    "lat": -33.8327117,
    "lng": 151.0215668,
    "prices": [
      {
        "fuel_type": "EV",
        "price": 0.0
      }
    ],
    "source": "fuelcheck"
  },
  {
    "id": "19103",
    "name": "Bankstown Sports Club",
    "brand": "Tesla",
    "address": "8 Greenfield Parade, Bankstown NSW 2200",
    "lat": -33.9199788,
    "lng": 151.0333375,
    "prices": [
      {
        "fuel_type": "EV",
        "price": 0.0
      }
    ],
    "source": "fuelcheck"
  },
  {
    "id": "19117",
    "name": "Baulkham Hills Sports Club",
    "brand": "Independent EV",
    "address": "11 Renown Rd, Baulkham Hills NSW 2153",
    "lat": -33.7632734,
    "lng": 151.0043477,
    "prices": [
      {
        "fuel_type": "EV",
        "price": 0.0
      }
    ],
    "source": "fuelcheck"
  },
  {
    "id": "19120",
    "name": "Bella Vista Hotel",
    "brand": "Independent EV",
    "address": "13-15 Lexington Dr, Bella Vista NSW 2153",
    "lat": -33.7365294,
    "lng": 150.9485142,
    "prices": [
      {
        "fuel_type": "EV",
        "price": 0.0
      }
    ],
    "source": "fuelcheck"
  },
  {
    "id": "19131",
    "name": "Birkenhead Point Outlet Centre",
    "brand": "Tesla",
    "address": "19 Roseby St, Drummoyne NSW 2047",
    "lat": -33.8555224,
    "lng": 151.1621054,
    "prices": [
      {
        "fuel_type": "EV",
        "price": 0.0
      }
    ],
    "source": "fuelcheck"
  },
  {
    "id": "19132",
    "name": "Birkenhead Point Outlet Centre",
    "brand": "Independent EV",
    "address": "19 Roseby St, Drummoyne NSW 2047",
    "lat": -33.8555224,
    "lng": 151.1622054,
    "prices": [
      {
        "fuel_type": "EV",
        "price": 0.0
      }
    ],
    "source": "fuelcheck"
  },
  {
    "id": "19133",
    "name": "Birkenhead Point Outlet Centre",
    "brand": "Chargefox",
    "address": "19 Roseby St, Drummoyne NSW 2047",
    "lat": -33.8555224,
    "lng": 151.1623054,
    "prices": [
      {
        "fuel_type": "EV",
        "price": 0.0
      }
    ],
    "source": "fuelcheck"
  },
  {
    "id": "19143",
    "name": "Bressington Park Carpark",
    "brand": "Independent EV",
    "address": "Underwood Road opp DFO Homebush, Homebush NSW 2140",
    "lat": -33.855129,
    "lng": 151.078781,
    "prices": [
      {
        "fuel_type": "EV",
        "price": 0.0
      }
    ],
    "source": "fuelcheck"
  },
  {
    "id": "19145",
    "name": "Broadway Shopping Centre",
    "brand": "Tesla",
    "address": "31 Bay St, Glebe NSW 2037",
    "lat": -33.8827784,
    "lng": 151.1948135,
    "prices": [
      {
        "fuel_type": "EV",
        "price": 0.0
      }
    ],
    "source": "fuelcheck"
  },
  {
    "id": "19146",
    "name": "Broadway Shopping Centre",
    "brand": "Independent EV",
    "address": "31 Bay St, Glebe NSW 2037",
    "lat": -33.8827784,
    "lng": 151.1949135,
    "prices": [
      {
        "fuel_type": "EV",
        "price": 0.0
      }
    ],
    "source": "fuelcheck"
  },
  {
    "id": "19147",
    "name": "Broadway Shopping Centre",
    "brand": "Chargefox",
    "address": "31 Bay St, Glebe NSW 2037",
    "lat": -33.8827784,
    "lng": 151.1950135,
    "prices": [
      {
        "fuel_type": "EV",
        "price": 0.0
      }
    ],
    "source": "fuelcheck"
  },
  {
    "id": "19156",
    "name": "Cabramatta Hotel",
    "brand": "Tesla",
    "address": "224 Railway Pde, Cabramatta NSW 2166",
    "lat": -33.8966772,
    "lng": 150.9379107,
    "prices": [
      {
        "fuel_type": "EV",
        "price": 0.0
      }
    ],
    "source": "fuelcheck"
  },
  {
    "id": "19162",
    "name": "Canterbury Bankstown Council",
    "brand": "Independent EV",
    "address": "21 Shakespeare St, Campsie NSW 2194",
    "lat": -33.9076689,
    "lng": 151.1039558,
    "prices": [
      {
        "fuel_type": "EV",
        "price": 0.0
      }
    ],
    "source": "fuelcheck"
  },
  {
    "id": "19166",
    "name": "Castle Towers Shopping Centre",
    "brand": "Tesla",
    "address": "6/14 Castle St, Castle Hill NSW 2154",
    "lat": -33.7296502,
    "lng": 151.0068965,
    "prices": [
      {
        "fuel_type": "EV",
        "price": 0.0
      }
    ],
    "source": "fuelcheck"
  },
  {
    "id": "19171",
    "name": "Charles St Parking/Charging",
    "brand": "Independent EV",
    "address": "10B Charles St, Canterbury NSW 2193",
    "lat": -33.9117284,
    "lng": 151.1174279,
    "prices": [
      {
        "fuel_type": "EV",
        "price": 0.0
      }
    ],
    "source": "fuelcheck"
  },
  {
    "id": "19172",
    "name": "Cherrybrook Village",
    "brand": "Tesla",
    "address": "Shop 42/47 Shepherds Dr, Cherrybrook NSW 2126",
    "lat": -33.7209507,
    "lng": 151.043454,
    "prices": [
      {
        "fuel_type": "EV",
        "price": 0.0
      }
    ],
    "source": "fuelcheck"
  },
  {
    "id": "19173",
    "name": "Cherrybrook Village",
    "brand": "Independent EV",
    "address": "Shop 42/47 Shepherds Dr, Cherrybrook NSW 2126",
    "lat": -33.7209507,
    "lng": 151.043554,
    "prices": [
      {
        "fuel_type": "EV",
        "price": 0.0
      }
    ],
    "source": "fuelcheck"
  },
  {
    "id": "19174",
    "name": "Cherrybrook Village",
    "brand": "Chargefox",
    "address": "Shop 42/47 Shepherds Dr, Cherrybrook NSW 2126",
    "lat": -33.7209507,
    "lng": 151.043654,
    "prices": [
      {
        "fuel_type": "EV",
        "price": 0.0
      }
    ],
    "source": "fuelcheck"
  },
  {
    "id": "19181",
    "name": "Coogee Eastward Senior Citizens Hall",
    "brand": "Chargefox",
    "address": "97R Brook St, Coogee NSW 2034",
    "lat": -33.919164,
    "lng": 151.2548881,
    "prices": [
      {
        "fuel_type": "EV",
        "price": 0.0
      }
    ],
    "source": "fuelcheck"
  },
  {
    "id": "19188",
    "name": "Crowne Plaza Darling Harbour",
    "brand": "Tesla",
    "address": "58 Bathurst St, Sydney NSW 2000",
    "lat": -33.8739184,
    "lng": 151.2040542,
    "prices": [
      {
        "fuel_type": "EV",
        "price": 0.0
      }
    ],
    "source": "fuelcheck"
  },
  {
    "id": "19195",
    "name": "Darling Park - Wilson Parking",
    "brand": "Chargefox",
    "address": "201 Sussex St, Sydney NSW 2000",
    "lat": -33.8712161,
    "lng": 151.203816,
    "prices": [
      {
        "fuel_type": "EV",
        "price": 0.0
      }
    ],
    "source": "fuelcheck"
  },
  {
    "id": "19202",
    "name": "East Village Shopping Centre",
    "brand": "Chargefox",
    "address": "4 Defries Ave, Zetland NSW 2017",
    "lat": -33.9052704,
    "lng": 151.2130888,
    "prices": [
      {
        "fuel_type": "EV",
        "price": 0.0
      }
    ],
    "source": "fuelcheck"
  },
  {
    "id": "19203",
    "name": "East Village Shopping Centre",
    "brand": "Tesla",
    "address": "4 Defries Ave, Zetland NSW 2017",
    "lat": -33.9052704,
    "lng": 151.2131888,
    "prices": [
      {
        "fuel_type": "EV",
        "price": 0.0
      }
    ],
    "source": "fuelcheck"
  },
  {
    "id": "19207",
    "name": "Eden Gardens",
    "brand": "Tesla",
    "address": "307 Lane Cove Rd, Macquarie Park NSW 2113",
    "lat": -33.780526,
    "lng": 151.1340844,
    "prices": [
      {
        "fuel_type": "EV",
        "price": 0.0
      }
    ],
    "source": "fuelcheck"
  },
  {
    "id": "19217",
    "name": "evse.com.au",
    "brand": "Independent EV",
    "address": "14/13 Brumby St, Seven Hills NSW 2147",
    "lat": -33.7692352,
    "lng": 150.9469445,
    "prices": [
      {
        "fuel_type": "EV",
        "price": 0.0
      }
    ],
    "source": "fuelcheck"
  },
  {
    "id": "19226",
    "name": "Glenferrie Lodge Kirribilli",
    "brand": "Tesla",
    "address": "12A Carabella St, Kirribilli NSW 2061",
    "lat": -33.8501441,
    "lng": 151.2182433,
    "prices": [
      {
        "fuel_type": "EV",
        "price": 0.0
      }
    ],
    "source": "fuelcheck"
  },
  {
    "id": "19236",
    "name": "Greenwood Plaza",
    "brand": "Tesla",
    "address": "36 Blue St, North Sydney NSW 2060",
    "lat": -33.8406884,
    "lng": 151.2075778,
    "prices": [
      {
        "fuel_type": "EV",
        "price": 0.0
      }
    ],
    "source": "fuelcheck"
  },
  {
    "id": "19237",
    "name": "Greenwood Plaza",
    "brand": "Chargefox",
    "address": "36 Blue St, North Sydney NSW 2060",
    "lat": -33.8406884,
    "lng": 151.2076778,
    "prices": [
      {
        "fuel_type": "EV",
        "price": 0.0
      }
    ],
    "source": "fuelcheck"
  },
  {
    "id": "19239",
    "name": "Grosvenor Place (7 Essex St)",
    "brand": "Independent EV",
    "address": "225 George St, Sydney NSW 2000",
    "lat": -33.8629649,
    "lng": 151.207252,
    "prices": [
      {
        "fuel_type": "EV",
        "price": 0.0
      }
    ],
    "source": "fuelcheck"
  },
  {
    "id": "19247",
    "name": "Harbourside Wilson Parking",
    "brand": "Independent EV",
    "address": "59 Murray St, Sydney NSW 2000",
    "lat": -33.870915,
    "lng": 151.1974125,
    "prices": [
      {
        "fuel_type": "EV",
        "price": 0.0
      }
    ],
    "source": "fuelcheck"
  },
  {
    "id": "19253",
    "name": "Hills Flower Market",
    "brand": "Tesla",
    "address": "287 Mona Vale Rd, Terrey Hills NSW 2084",
    "lat": -33.6886646,
    "lng": 151.2236545,
    "prices": [
      {
        "fuel_type": "EV",
        "price": 0.0
      }
    ],
    "source": "fuelcheck"
  },
  {
    "id": "19255",
    "name": "Hilton Sydney",
    "brand": "Tesla",
    "address": "259 Pitt St, Sydney NSW 2000",
    "lat": -33.8720109,
    "lng": 151.207892,
    "prices": [
      {
        "fuel_type": "EV",
        "price": 0.0
      }
    ],
    "source": "fuelcheck"
  },
  {
    "id": "19258",
    "name": "Holtermann St Carpark",
    "brand": "Independent EV",
    "address": "29 Holtermann St, Crows Nest NSW 2065",
    "lat": -33.8251258,
    "lng": 151.2021849,
    "prices": [
      {
        "fuel_type": "EV",
        "price": 0.0
      }
    ],
    "source": "fuelcheck"
  },
  {
    "id": "19260",
    "name": "Hume St Carpark",
    "brand": "Independent EV",
    "address": "44 Hume St, Crows Nest NSW 2065",
    "lat": -33.8244407,
    "lng": 151.1998883,
    "prices": [
      {
        "fuel_type": "EV",
        "price": 0.0
      }
    ],
    "source": "fuelcheck"
  },
  {
    "id": "19267",
    "name": "ICC Sydney Exhibition Centre Car Park (Car Park 1)",
    "brand": "ChargePoint",
    "address": "14 Darling Dr, Sydney NSW 2000",
    "lat": -33.8751814,
    "lng": 151.1998628,
    "prices": [
      {
        "fuel_type": "EV",
        "price": 0.0
      }
    ],
    "source": "fuelcheck"
  },
  {
    "id": "19269",
    "name": "Intercontinental Hotel",
    "brand": "Tesla",
    "address": "117 Macquarie St, Sydney NSW 2000",
    "lat": -33.8628857,
    "lng": 151.2123616,
    "prices": [
      {
        "fuel_type": "EV",
        "price": 0.0
      }
    ],
    "source": "fuelcheck"
  },
  {
    "id": "19270",
    "name": "Intercontinental Hotel",
    "brand": "Chargefox",
    "address": "117 Macquarie St, Sydney NSW 2000",
    "lat": -33.8628857,
    "lng": 151.2124616,
    "prices": [
      {
        "fuel_type": "EV",
        "price": 0.0
      }
    ],
    "source": "fuelcheck"
  },
  {
    "id": "19271",
    "name": "Intercontinental Sydney Double Bay",
    "brand": "Independent EV",
    "address": "20/26 Cross St, Double Bay NSW 2028",
    "lat": -33.8764552,
    "lng": 151.2430418,
    "prices": [
      {
        "fuel_type": "EV",
        "price": 0.0
      }
    ],
    "source": "fuelcheck"
  },
  {
    "id": "19281",
    "name": "KFC Frenchs Forest",
    "brand": "Independent EV",
    "address": "20 Frenchs Forest Rd E, Frenchs Forest NSW 2086",
    "lat": -33.7515351,
    "lng": 151.2441705,
    "prices": [
      {
        "fuel_type": "EV",
        "price": 0.0
      }
    ],
    "source": "fuelcheck"
  },
  {
    "id": "19282",
    "name": "Kiaora Place Shopping Centre",
    "brand": "Chargefox",
    "address": "1 Kiaora Rd, Double Bay NSW 2028",
    "lat": -33.8783925,
    "lng": 151.2439428,
    "prices": [
      {
        "fuel_type": "EV",
        "price": 0.0
      }
    ],
    "source": "fuelcheck"
  },
  {
    "id": "19294",
    "name": "Lane Cove Market Square Car Park",
    "brand": "Independent EV",
    "address": "28 Burns Bay Rd, Lane Cove NSW 2066",
    "lat": -33.8151643,
    "lng": 151.1691303,
    "prices": [
      {
        "fuel_type": "EV",
        "price": 0.0
      }
    ],
    "source": "fuelcheck"
  },
  {
    "id": "19299",
    "name": "Little Street Car Park",
    "brand": "Independent EV",
    "address": "2 Little St, Lane Cove North NSW 2066",
    "lat": -33.8135344,
    "lng": 151.1715451,
    "prices": [
      {
        "fuel_type": "EV",
        "price": 0.0
      }
    ],
    "source": "fuelcheck"
  },
  {
    "id": "19308",
    "name": "Macquarie Centre - Chargepoint",
    "brand": "ChargePoint",
    "address": "63 Talavera Rd, Macquarie Park NSW 2113",
    "lat": -33.7760506,
    "lng": 151.1222793,
    "prices": [
      {
        "fuel_type": "EV",
        "price": 0.0
      }
    ],
    "source": "fuelcheck"
  },
  {
    "id": "19309",
    "name": "Macquarie Park Supercharger",
    "brand": "Tesla",
    "address": "55-61 Talavera Rd, Macquarie Park NSW 2113",
    "lat": -33.7772778,
    "lng": 151.1236512,
    "prices": [
      {
        "fuel_type": "EV",
        "price": 0.0
      }
    ],
    "source": "fuelcheck"
  },
  {
    "id": "19310",
    "name": "Macquarie University",
    "brand": "Independent EV",
    "address": "Balaclava Rd, Macquarie Park NSW 2109",
    "lat": -33.7738237,
    "lng": 151.1126498,
    "prices": [
      {
        "fuel_type": "EV",
        "price": 0.0
      }
    ],
    "source": "fuelcheck"
  },
  {
    "id": "19312",
    "name": "Marina Square Shopping Centre Wentworth Point",
    "brand": "Tesla",
    "address": "5 Footbridge Bvd, Sydney Olympic Park NSW 2127",
    "lat": -33.8245423,
    "lng": 151.0789793,
    "prices": [
      {
        "fuel_type": "EV",
        "price": 0.0
      }
    ],
    "source": "fuelcheck"
  },
  {
    "id": "19313",
    "name": "Marina Square Shopping Centre Wentworth Point",
    "brand": "Independent EV",
    "address": "5 Footbridge Bvd, Sydney Olympic Park NSW 2127",
    "lat": -33.8245423,
    "lng": 151.0790793,
    "prices": [
      {
        "fuel_type": "EV",
        "price": 0.0
      }
    ],
    "source": "fuelcheck"
  },
  {
    "id": "19315",
    "name": "McDonald's",
    "brand": "Chargefox",
    "address": "133 Samantha Riley Dr, Kellyville NSW 2155",
    "lat": -33.6996291,
    "lng": 150.9576895,
    "prices": [
      {
        "fuel_type": "EV",
        "price": 0.0
      }
    ],
    "source": "fuelcheck"
  },
  {
    "id": "19316",
    "name": "McDonald's Dural",
    "brand": "Chargefox",
    "address": "823 Old Northern Rd, Dural NSW 2158",
    "lat": -33.6958229,
    "lng": 151.0315945,
    "prices": [
      {
        "fuel_type": "EV",
        "price": 0.0
      }
    ],
    "source": "fuelcheck"
  },
  {
    "id": "19320",
    "name": "Mercure Hotel",
    "brand": "ChargePoint",
    "address": "Shop 1/820 George St, Sydney NSW 2000",
    "lat": -33.8842625,
    "lng": 151.203022,
    "prices": [
      {
        "fuel_type": "EV",
        "price": 0.0
      }
    ],
    "source": "fuelcheck"
  },
  {
    "id": "19322",
    "name": "Mill Hill Centre",
    "brand": "Chargefox",
    "address": "31 Spring St, Bondi Junction NSW 2022",
    "lat": -33.8924759,
    "lng": 151.2461293,
    "prices": [
      {
        "fuel_type": "EV",
        "price": 0.0
      }
    ],
    "source": "fuelcheck"
  },
  {
    "id": "19326",
    "name": "Mirvac South Eveleigh",
    "brand": "Tesla",
    "address": "2 Central Ave, Eveleigh NSW 2015",
    "lat": -33.8961195,
    "lng": 151.1951555,
    "prices": [
      {
        "fuel_type": "EV",
        "price": 0.0
      }
    ],
    "source": "fuelcheck"
  },
  {
    "id": "19327",
    "name": "Mirvac South Eveleigh",
    "brand": "Chargefox",
    "address": "2 Central Ave, Eveleigh NSW 2015",
    "lat": -33.8961195,
    "lng": 151.1952555,
    "prices": [
      {
        "fuel_type": "EV",
        "price": 0.0
      }
    ],
    "source": "fuelcheck"
  },
  {
    "id": "19333",
    "name": "Mosman Council",
    "brand": "Evie Networks",
    "address": "6 Myahgah Rd, Mosman NSW 2088",
    "lat": -33.8255979,
    "lng": 151.2413993,
    "prices": [
      {
        "fuel_type": "EV",
        "price": 0.0
      }
    ],
    "source": "fuelcheck"
  },
  {
    "id": "19347",
    "name": "NHP Electrical Engineering Products Pty Ltd",
    "brand": "Independent EV",
    "address": "30-34 Day St N, Silverwater NSW 2128",
    "lat": -33.8381725,
    "lng": 151.0526388,
    "prices": [
      {
        "fuel_type": "EV",
        "price": 0.0
      }
    ],
    "source": "fuelcheck"
  },
  {
    "id": "19348",
    "name": "Nicholson St Carpark",
    "brand": "Independent EV",
    "address": "19 Nicholson St, Wollstonecraft NSW 2065",
    "lat": -33.8269518,
    "lng": 151.199066,
    "prices": [
      {
        "fuel_type": "EV",
        "price": 0.0
      }
    ],
    "source": "fuelcheck"
  },
  {
    "id": "19351",
    "name": "North Shore BMW",
    "brand": "ChargePoint",
    "address": "676 Pacific Hwy, Chatswood NSW 2067",
    "lat": -33.7991358,
    "lng": 151.1786013,
    "prices": [
      {
        "fuel_type": "EV",
        "price": 0.0
      }
    ],
    "source": "fuelcheck"
  },
  {
    "id": "19352",
    "name": "North Sydney Council- Woolworths Car Park Crows Nest",
    "brand": "Independent EV",
    "address": "10 Falcon St, Crows Nest NSW 2065",
    "lat": -33.8272798,
    "lng": 151.2017211,
    "prices": [
      {
        "fuel_type": "EV",
        "price": 0.0
      }
    ],
    "source": "fuelcheck"
  },
  {
    "id": "19355",
    "name": "Novotel Sydney Central",
    "brand": "Tesla",
    "address": "179 Thomas St, Haymarket NSW 2000",
    "lat": -33.8817471,
    "lng": 151.2027944,
    "prices": [
      {
        "fuel_type": "EV",
        "price": 0.0
      }
    ],
    "source": "fuelcheck"
  },
  {
    "id": "19367",
    "name": "Park Hyatt Sydney",
    "brand": "Tesla",
    "address": "7 Hickson Rd, The Rocks NSW 2000",
    "lat": -33.8557235,
    "lng": 151.2097888,
    "prices": [
      {
        "fuel_type": "EV",
        "price": 0.0
      }
    ],
    "source": "fuelcheck"
  },
  {
    "id": "19370",
    "name": "Parramatta Motor Group, Service Centre",
    "brand": "Independent EV",
    "address": "3 Grand Ave, Camellia NSW 2142",
    "lat": -33.8199946,
    "lng": 151.0262131,
    "prices": [
      {
        "fuel_type": "EV",
        "price": 0.0
      }
    ],
    "source": "fuelcheck"
  },
  {
    "id": "19371",
    "name": "Parramatta Nissan",
    "brand": "ChargePoint",
    "address": "Raymond St & Church St, Parramatta NSW 2150",
    "lat": -33.8247653,
    "lng": 151.0046269,
    "prices": [
      {
        "fuel_type": "EV",
        "price": 0.0
      }
    ],
    "source": "fuelcheck"
  },
  {
    "id": "19376",
    "name": "Pennant Hills Market Place",
    "brand": "Independent EV",
    "address": "shop 17/10 Hillcrest Rd, Pennant Hills NSW 2120",
    "lat": -33.7376217,
    "lng": 151.0709729,
    "prices": [
      {
        "fuel_type": "EV",
        "price": 0.0
      }
    ],
    "source": "fuelcheck"
  },
  {
    "id": "19383",
    "name": "Pier One Sydney Harbour",
    "brand": "Tesla",
    "address": "11 Hickson Rd, Dawes Point NSW 2000",
    "lat": -33.85419,
    "lng": 151.2081547,
    "prices": [
      {
        "fuel_type": "EV",
        "price": 0.0
      }
    ],
    "source": "fuelcheck"
  },
  {
    "id": "19390",
    "name": "Pullman Sydney Hyde Park",
    "brand": "Tesla",
    "address": "36 College St, Darlinghurst NSW 2010",
    "lat": -33.8762429,
    "lng": 151.2125209,
    "prices": [
      {
        "fuel_type": "EV",
        "price": 0.0
      }
    ],
    "source": "fuelcheck"
  },
  {
    "id": "19394",
    "name": "Queen Victoria Building - Valet Parking",
    "brand": "Tesla",
    "address": "111 York St, Sydney NSW 2000",
    "lat": -33.8711794,
    "lng": 151.2061077,
    "prices": [
      {
        "fuel_type": "EV",
        "price": 0.0
      }
    ],
    "source": "fuelcheck"
  },
  {
    "id": "19397",
    "name": "Randwick Junction",
    "brand": "Chargefox",
    "address": "18 Silver St, Randwick NSW 2031",
    "lat": -33.9138492,
    "lng": 151.2393362,
    "prices": [
      {
        "fuel_type": "EV",
        "price": 0.0
      }
    ],
    "source": "fuelcheck"
  },
  {
    "id": "19398",
    "name": "Rhodes Waterside",
    "brand": "Tesla",
    "address": "1 Rider Blvd, Rhodes NSW 2138",
    "lat": -33.8351248,
    "lng": 151.084473,
    "prices": [
      {
        "fuel_type": "EV",
        "price": 0.0
      }
    ],
    "source": "fuelcheck"
  },
  {
    "id": "19399",
    "name": "Rhodes Waterside",
    "brand": "Independent EV",
    "address": "1 Rider Blvd, Rhodes NSW 2138",
    "lat": -33.8351248,
    "lng": 151.084573,
    "prices": [
      {
        "fuel_type": "EV",
        "price": 0.0
      }
    ],
    "source": "fuelcheck"
  },
  {
    "id": "19400",
    "name": "Rhodes Waterside",
    "brand": "Chargefox",
    "address": "1 Rider Blvd, Rhodes NSW 2138",
    "lat": -33.8351248,
    "lng": 151.084673,
    "prices": [
      {
        "fuel_type": "EV",
        "price": 0.0
      }
    ],
    "source": "fuelcheck"
  },
  {
    "id": "19401",
    "name": "Ridge St Carpark",
    "brand": "Independent EV",
    "address": "1 James Pl, North Sydney NSW 2060",
    "lat": -33.833291,
    "lng": 151.2073294,
    "prices": [
      {
        "fuel_type": "EV",
        "price": 0.0
      }
    ],
    "source": "fuelcheck"
  },
  {
    "id": "19409",
    "name": "Rouse Hill Town Centre - Purple Car Park",
    "brand": "Tesla",
    "address": "72 Civic Way, Rouse Hill NSW 2155",
    "lat": -33.6906736,
    "lng": 150.9258319,
    "prices": [
      {
        "fuel_type": "EV",
        "price": 0.0
      }
    ],
    "source": "fuelcheck"
  },
  {
    "id": "19419",
    "name": "Seven Hills Railway Station Carpark",
    "brand": "Chargefox",
    "address": "Boomerang Pl, Seven Hills NSW 2147",
    "lat": -33.7747435,
    "lng": 150.9362842,
    "prices": [
      {
        "fuel_type": "EV",
        "price": 0.0
      }
    ],
    "source": "fuelcheck"
  },
  {
    "id": "19422",
    "name": "Sheraton Grand Hyde Park",
    "brand": "Tesla",
    "address": "161 Elizabeth St, Sydney NSW 2000",
    "lat": -33.8715295,
    "lng": 151.2097193,
    "prices": [
      {
        "fuel_type": "EV",
        "price": 0.0
      }
    ],
    "source": "fuelcheck"
  },
  {
    "id": "19433",
    "name": "St Ives Shopping Village",
    "brand": "Chargefox",
    "address": "166 Mona Vale Rd, St Ives NSW 2075",
    "lat": -33.7299009,
    "lng": 151.1585895,
    "prices": [
      {
        "fuel_type": "EV",
        "price": 0.0
      }
    ],
    "source": "fuelcheck"
  },
  {
    "id": "19435",
    "name": "Stanhope Village Shopping Centre",
    "brand": "Tesla",
    "address": "2 Sentry Dr, Stanhope Gardens NSW 2768",
    "lat": -33.7186167,
    "lng": 150.9200078,
    "prices": [
      {
        "fuel_type": "EV",
        "price": 0.0
      }
    ],
    "source": "fuelcheck"
  },
  {
    "id": "19436",
    "name": "Stanhope Village Shopping Centre",
    "brand": "Chargefox",
    "address": "2 Sentry Dr, Stanhope Gardens NSW 2768",
    "lat": -33.7186167,
    "lng": 150.9201078,
    "prices": [
      {
        "fuel_type": "EV",
        "price": 0.0
      }
    ],
    "source": "fuelcheck"
  },
  {
    "id": "19440",
    "name": "Stockland Baulkham Hills Mall",
    "brand": "Tesla",
    "address": "375 Windsor Rd, Baulkham Hills NSW 2153",
    "lat": -33.7590552,
    "lng": 150.9915552,
    "prices": [
      {
        "fuel_type": "EV",
        "price": 0.0
      }
    ],
    "source": "fuelcheck"
  },
  {
    "id": "19441",
    "name": "Stockland Baulkham Hills Mall",
    "brand": "ChargePoint",
    "address": "375 Windsor Rd, Baulkham Hills NSW 2153",
    "lat": -33.7590552,
    "lng": 150.9916552,
    "prices": [
      {
        "fuel_type": "EV",
        "price": 0.0
      }
    ],
    "source": "fuelcheck"
  },
  {
    "id": "19442",
    "name": "Stockland Cammeray",
    "brand": "Tesla",
    "address": "450 Miller St, Cammeray NSW 2062",
    "lat": -33.8236017,
    "lng": 151.2097047,
    "prices": [
      {
        "fuel_type": "EV",
        "price": 0.0
      }
    ],
    "source": "fuelcheck"
  },
  {
    "id": "19443",
    "name": "Stockland Cammeray",
    "brand": "ChargePoint",
    "address": "450 Miller St, Cammeray NSW 2062",
    "lat": -33.8236017,
    "lng": 151.2098047,
    "prices": [
      {
        "fuel_type": "EV",
        "price": 0.0
      }
    ],
    "source": "fuelcheck"
  },
  {
    "id": "19452",
    "name": "Stockland Merrylands",
    "brand": "Tesla",
    "address": "Pitt St & McFarlane St, Merrylands NSW 2160",
    "lat": -33.8358671,
    "lng": 150.9915856,
    "prices": [
      {
        "fuel_type": "EV",
        "price": 0.0
      }
    ],
    "source": "fuelcheck"
  },
  {
    "id": "19458",
    "name": "Strathfield Square Parking",
    "brand": "Independent EV",
    "address": "5 Churchill Ave, Strathfield NSW 2135",
    "lat": -33.8721739,
    "lng": 151.0935841,
    "prices": [
      {
        "fuel_type": "EV",
        "price": 0.0
      }
    ],
    "source": "fuelcheck"
  },
  {
    "id": "19460",
    "name": "Supa Centa Moore Park",
    "brand": "Tesla",
    "address": "2 Todman Ave, Kensington NSW 2033",
    "lat": -33.9024515,
    "lng": 151.2152205,
    "prices": [
      {
        "fuel_type": "EV",
        "price": 0.0
      }
    ],
    "source": "fuelcheck"
  },
  {
    "id": "19463",
    "name": "Suttons City Nissan",
    "brand": "Chargefox",
    "address": "118-130 Epsom Rd, Zetland NSW 2017",
    "lat": -33.9112217,
    "lng": 151.2106444,
    "prices": [
      {
        "fuel_type": "EV",
        "price": 0.0
      }
    ],
    "source": "fuelcheck"
  },
  {
    "id": "19466",
    "name": "Sydney Broadway Supercharger",
    "brand": "Tesla",
    "address": "1 Bay St, Glebe NSW 2037",
    "lat": -33.8829417,
    "lng": 151.1941191,
    "prices": [
      {
        "fuel_type": "EV",
        "price": 0.0
      }
    ],
    "source": "fuelcheck"
  },
  {
    "id": "19467",
    "name": "Sydney City Traders",
    "brand": "Independent EV",
    "address": "153 Parramatta Rd, Five Dock NSW 2046",
    "lat": -33.8705139,
    "lng": 151.1187607,
    "prices": [
      {
        "fuel_type": "EV",
        "price": 0.0
      }
    ],
    "source": "fuelcheck"
  },
  {
    "id": "19468",
    "name": "Sydney Markets",
    "brand": "Tesla",
    "address": "250/318 Parramatta Rd, Homebush West NSW 2140",
    "lat": -33.860054,
    "lng": 151.0712501,
    "prices": [
      {
        "fuel_type": "EV",
        "price": 0.0
      }
    ],
    "source": "fuelcheck"
  },
  {
    "id": "19469",
    "name": "Sydney Markets",
    "brand": "Independent EV",
    "address": "250/318 Parramatta Rd, Homebush West NSW 2140",
    "lat": -33.860054,
    "lng": 151.0713501,
    "prices": [
      {
        "fuel_type": "EV",
        "price": 0.0
      }
    ],
    "source": "fuelcheck"
  },
  {
    "id": "19470",
    "name": "Sydney Markets",
    "brand": "Independent EV",
    "address": "250/318 Parramatta Rd, Homebush West NSW 2140",
    "lat": -33.8631454,
    "lng": 151.0718938,
    "prices": [
      {
        "fuel_type": "EV",
        "price": 0.0
      }
    ],
    "source": "fuelcheck"
  },
  {
    "id": "19472",
    "name": "Sydney Olympic Park",
    "brand": "Tesla",
    "address": "15 Edwin Flack Ave, Sydney Olympic Park NSW 2127",
    "lat": -33.8449744,
    "lng": 151.0607053,
    "prices": [
      {
        "fuel_type": "EV",
        "price": 0.0
      }
    ],
    "source": "fuelcheck"
  },
  {
    "id": "19473",
    "name": "Sydney Olympic Park",
    "brand": "NRMA",
    "address": "9 Murray Rose Ave, Sydney Olympic Park NSW 2127",
    "lat": -33.8458628,
    "lng": 151.0696945,
    "prices": [
      {
        "fuel_type": "EV",
        "price": 0.0
      }
    ],
    "source": "fuelcheck"
  },
  {
    "id": "19478",
    "name": "The Amora Hotel Jamison Sydney",
    "brand": "Tesla",
    "address": "11 Jamison St, Sydney NSW 2000",
    "lat": -33.8645502,
    "lng": 151.2061462,
    "prices": [
      {
        "fuel_type": "EV",
        "price": 0.0
      }
    ],
    "source": "fuelcheck"
  },
  {
    "id": "19480",
    "name": "The Canopy Lane Cove - P3",
    "brand": "Tesla",
    "address": "2/24 Birdwood Ln, Sydney NSW 2066",
    "lat": -33.813922,
    "lng": 151.169515,
    "prices": [
      {
        "fuel_type": "EV",
        "price": 0.0
      }
    ],
    "source": "fuelcheck"
  },
  {
    "id": "19481",
    "name": "The Canopy Lane Cove - P3",
    "brand": "Independent EV",
    "address": "2/24 Birdwood Ln, Sydney NSW 2066",
    "lat": -33.813922,
    "lng": 151.169615,
    "prices": [
      {
        "fuel_type": "EV",
        "price": 0.0
      }
    ],
    "source": "fuelcheck"
  },
  {
    "id": "19489",
    "name": "The Highline Venue",
    "brand": "Tesla",
    "address": "462 Chapel Rd, Bankstown NSW 2200",
    "lat": -33.913447,
    "lng": 151.0341269,
    "prices": [
      {
        "fuel_type": "EV",
        "price": 0.0
      }
    ],
    "source": "fuelcheck"
  },
  {
    "id": "19490",
    "name": "The Hills Lodge",
    "brand": "Tesla",
    "address": "1 Salisbury Rd, Castle Hill NSW 2154",
    "lat": -33.7306381,
    "lng": 150.9731012,
    "prices": [
      {
        "fuel_type": "EV",
        "price": 0.0
      }
    ],
    "source": "fuelcheck"
  },
  {
    "id": "19493",
    "name": "The Langham Hotel Sydney",
    "brand": "Tesla",
    "address": "89-113 Kent St, Millers Point NSW 2000",
    "lat": -33.8605169,
    "lng": 151.2034473,
    "prices": [
      {
        "fuel_type": "EV",
        "price": 0.0
      }
    ],
    "source": "fuelcheck"
  },
  {
    "id": "19497",
    "name": "The Mix Chatswood Carpark",
    "brand": "Independent EV",
    "address": "46 Hercules St, Chatswood NSW 2067",
    "lat": -33.7957097,
    "lng": 151.1888199,
    "prices": [
      {
        "fuel_type": "EV",
        "price": 0.0
      }
    ],
    "source": "fuelcheck"
  },
  {
    "id": "19509",
    "name": "Thomas Street Carpark",
    "brand": "Everty",
    "address": "25 Thomas St, Ultimo NSW 2007",
    "lat": -33.8832202,
    "lng": 151.1986639,
    "prices": [
      {
        "fuel_type": "EV",
        "price": 0.0
      }
    ],
    "source": "fuelcheck"
  },
  {
    "id": "19511",
    "name": "Top Ryde City Shopping Centre",
    "brand": "Chargefox",
    "address": "Blaxland Rd & Devlin St, Ryde NSW 2112",
    "lat": -33.8102014,
    "lng": 151.1060251,
    "prices": [
      {
        "fuel_type": "EV",
        "price": 0.0
      }
    ],
    "source": "fuelcheck"
  },
  {
    "id": "19513",
    "name": "Tramsheds Harold Park",
    "brand": "Tesla",
    "address": "1 Dalgal Way, Forest Lodge NSW 2037",
    "lat": -33.8761055,
    "lng": 151.1783737,
    "prices": [
      {
        "fuel_type": "EV",
        "price": 0.0
      }
    ],
    "source": "fuelcheck"
  },
  {
    "id": "19514",
    "name": "Tramsheds Harold Park",
    "brand": "Independent EV",
    "address": "1 Dalgal Way, Forest Lodge NSW 2037",
    "lat": -33.8761055,
    "lng": 151.1784737,
    "prices": [
      {
        "fuel_type": "EV",
        "price": 0.0
      }
    ],
    "source": "fuelcheck"
  },
  {
    "id": "19515",
    "name": "Tramsheds Harold Park",
    "brand": "Chargefox",
    "address": "1 Dalgal Way, Forest Lodge NSW 2037",
    "lat": -33.8761055,
    "lng": 151.1785737,
    "prices": [
      {
        "fuel_type": "EV",
        "price": 0.0
      }
    ],
    "source": "fuelcheck"
  },
  {
    "id": "19520",
    "name": "UNSW",
    "brand": "Chargefox",
    "address": "20 Oval Ln, Kensington NSW 2033",
    "lat": -33.9188055,
    "lng": 151.234467,
    "prices": [
      {
        "fuel_type": "EV",
        "price": 0.0
      }
    ],
    "source": "fuelcheck"
  },
  {
    "id": "19526",
    "name": "Volvo Cars Liverpool",
    "brand": "Independent EV",
    "address": "13 Hume Hwy, Warwick Farm NSW 2170",
    "lat": -33.9113775,
    "lng": 150.935893,
    "prices": [
      {
        "fuel_type": "EV",
        "price": 0.0
      }
    ],
    "source": "fuelcheck"
  },
  {
    "id": "19534",
    "name": "Westfield Bondi Junction - Car Park P3",
    "brand": "ChargePoint",
    "address": "13 Waverley St, Bondi Junction NSW 2022",
    "lat": -33.8930533,
    "lng": 151.2512645,
    "prices": [
      {
        "fuel_type": "EV",
        "price": 0.0
      }
    ],
    "source": "fuelcheck"
  },
  {
    "id": "19535",
    "name": "Westfield Bondi Junction - Car Park P4 (Valet)",
    "brand": "Tesla",
    "address": "500 Oxford St, Bondi Junction NSW 2022",
    "lat": -33.8915695,
    "lng": 151.2505012,
    "prices": [
      {
        "fuel_type": "EV",
        "price": 0.0
      }
    ],
    "source": "fuelcheck"
  },
  {
    "id": "19536",
    "name": "Westfield Bondi Junction - Valet Parking",
    "brand": "ChargePoint",
    "address": "500 Oxford St, Bondi Junction NSW 2022",
    "lat": -33.8915695,
    "lng": 151.2506012,
    "prices": [
      {
        "fuel_type": "EV",
        "price": 0.0
      }
    ],
    "source": "fuelcheck"
  },
  {
    "id": "19537",
    "name": "Westfield Chatswood Rooftop Parking",
    "brand": "Chargefox",
    "address": "52 Albert Ave, Chatswood NSW 2067",
    "lat": -33.7980745,
    "lng": 151.1844265,
    "prices": [
      {
        "fuel_type": "EV",
        "price": 0.0
      }
    ],
    "source": "fuelcheck"
  },
  {
    "id": "19538",
    "name": "Westfield Chatswood Underground Car Park",
    "brand": "ChargePoint",
    "address": "1 Anderson St, Chatswood NSW 2067",
    "lat": -33.7967682,
    "lng": 151.1828639,
    "prices": [
      {
        "fuel_type": "EV",
        "price": 0.0
      }
    ],
    "source": "fuelcheck"
  },
  {
    "id": "19541",
    "name": "Westfield Parramatta",
    "brand": "ChargePoint",
    "address": "59 Church St, Parramatta NSW 2150",
    "lat": -33.8221879,
    "lng": 151.0038102,
    "prices": [
      {
        "fuel_type": "EV",
        "price": 0.0
      }
    ],
    "source": "fuelcheck"
  },
  {
    "id": "19542",
    "name": "Westfield Sydney Central Plaza",
    "brand": "Tesla",
    "address": "135 King St, Sydney NSW 2000",
    "lat": -33.869167,
    "lng": 151.2087416,
    "prices": [
      {
        "fuel_type": "EV",
        "price": 0.0
      }
    ],
    "source": "fuelcheck"
  },
  {
    "id": "19543",
    "name": "Westfield Sydney Central Plaza",
    "brand": "Independent EV",
    "address": "135 King St, Sydney NSW 2000",
    "lat": -33.869167,
    "lng": 151.2088416,
    "prices": [
      {
        "fuel_type": "EV",
        "price": 0.0
      }
    ],
    "source": "fuelcheck"
  },
  {
    "id": "19550",
    "name": "Wilson Parking Domain Car Park",
    "brand": "Independent EV",
    "address": "St Marys Rd, Sydney NSW 2000",
    "lat": -33.8710864,
    "lng": 151.2144742,
    "prices": [
      {
        "fuel_type": "EV",
        "price": 0.0
      }
    ],
    "source": "fuelcheck"
  },
  {
    "id": "19551",
    "name": "Wilson Parking Market City",
    "brand": "Tesla",
    "address": "9-13 Hay St, Haymarket NSW 2000",
    "lat": -33.8799521,
    "lng": 151.2034355,
    "prices": [
      {
        "fuel_type": "EV",
        "price": 0.0
      }
    ],
    "source": "fuelcheck"
  },
  {
    "id": "19552",
    "name": "Wilson Secure Parking Opera House",
    "brand": "Independent EV",
    "address": "2A Macquarie St, Sydney NSW 2000",
    "lat": -33.8593398,
    "lng": 151.2135232,
    "prices": [
      {
        "fuel_type": "EV",
        "price": 0.0
      }
    ],
    "source": "fuelcheck"
  },
  {
    "id": "19699",
    "name": "BP Pulse Wiley Park",
    "brand": "BP",
    "address": "24-42 King Georges Rd, Wiley Park NSW 2195",
    "lat": -33.9195806,
    "lng": 151.0669204,
    "prices": [
      {
        "fuel_type": "EV",
        "price": 0.0
      }
    ],
    "source": "fuelcheck"
  },
  {
    "id": "19758",
    "name": "BUR001",
    "brand": "JOLT",
    "address": "133 Liverpool Rd, Burwood NSW 2134",
    "lat": -33.8872485,
    "lng": 151.0993351,
    "prices": [
      {
        "fuel_type": "EV",
        "price": 0.0
      }
    ],
    "source": "fuelcheck"
  },
  {
    "id": "19759",
    "name": "BUR002",
    "brand": "JOLT",
    "address": "22-36 Park Ave, Burwood NSW 2134",
    "lat": -33.8738488,
    "lng": 151.1019444,
    "prices": [
      {
        "fuel_type": "EV",
        "price": 0.0
      }
    ],
    "source": "fuelcheck"
  },
  {
    "id": "19760",
    "name": "BUR003",
    "brand": "JOLT",
    "address": "14-26 Everton Rd, Strathfield NSW 2135",
    "lat": -33.8719455,
    "lng": 151.0953253,
    "prices": [
      {
        "fuel_type": "EV",
        "price": 0.0
      }
    ],
    "source": "fuelcheck"
  },
  {
    "id": "19761",
    "name": "BUR006",
    "brand": "JOLT",
    "address": "110 Brighton St, Croydon NSW 2132",
    "lat": -33.8946476,
    "lng": 151.1096762,
    "prices": [
      {
        "fuel_type": "EV",
        "price": 0.0
      }
    ],
    "source": "fuelcheck"
  },
  {
    "id": "19762",
    "name": "CAB001",
    "brand": "JOLT",
    "address": "4 Regatta Rd, Five Dock NSW 2046",
    "lat": -33.8694899,
    "lng": 151.116156,
    "prices": [
      {
        "fuel_type": "EV",
        "price": 0.0
      }
    ],
    "source": "fuelcheck"
  },
  {
    "id": "19769",
    "name": "NBE002",
    "brand": "JOLT",
    "address": "59 The Centre, Forestville NSW 2087",
    "lat": -33.762056,
    "lng": 151.214167,
    "prices": [
      {
        "fuel_type": "EV",
        "price": 0.0
      }
    ],
    "source": "fuelcheck"
  },
  {
    "id": "19776",
    "name": "RAN001",
    "brand": "JOLT",
    "address": "110 Anzac Parade, Kensington NSW 2033",
    "lat": -33.9071303,
    "lng": 151.2241188,
    "prices": [
      {
        "fuel_type": "EV",
        "price": 0.0
      }
    ],
    "source": "fuelcheck"
  },
  {
    "id": "19778",
    "name": "STR001",
    "brand": "JOLT",
    "address": "19 Richmond Rd, Homebush West NSW 2140",
    "lat": -33.8660378,
    "lng": 151.0644524,
    "prices": [
      {
        "fuel_type": "EV",
        "price": 0.0
      }
    ],
    "source": "fuelcheck"
  },
  {
    "id": "19779",
    "name": "NRMA AC Charger P1 car park",
    "brand": "NRMA",
    "address": "14 Darling Dr, Sydney NSW 2000",
    "lat": -33.8750891,
    "lng": 151.1987383,
    "prices": [
      {
        "fuel_type": "EV",
        "price": 0.0
      }
    ],
    "source": "fuelcheck"
  },
  {
    "id": "19780",
    "name": "NRMA AC Charger P2 car park",
    "brand": "NRMA",
    "address": "14 Darling Dr, Sydney NSW 2000",
    "lat": -33.8767437,
    "lng": 151.2000042,
    "prices": [
      {
        "fuel_type": "EV",
        "price": 0.0
      }
    ],
    "source": "fuelcheck"
  },
  {
    "id": "20116",
    "name": "Chatswood Chase Shopping Centre",
    "brand": "Chargefox",
    "address": "345 Victoria Ave, Chatswood NSW 2067",
    "lat": -33.7943774357459,
    "lng": 151.1861515,
    "prices": [
      {
        "fuel_type": "EV",
        "price": 0.0
      }
    ],
    "source": "fuelcheck"
  },
  {
    "id": "20117",
    "name": "DFO Homebush",
    "brand": "Chargefox",
    "address": "3-5 Underwood Rd, Homebush NSW 2140",
    "lat": -33.8554080402185,
    "lng": 151.0768491,
    "prices": [
      {
        "fuel_type": "EV",
        "price": 0.0
      }
    ],
    "source": "fuelcheck"
  },
  {
    "id": "20275",
    "name": "53-71 Rowe Street, Eastwood",
    "brand": "Exploren",
    "address": "53-71 Rowe St, Eastwood NSW 2122",
    "lat": -33.7905895,
    "lng": 151.0844184,
    "prices": [
      {
        "fuel_type": "EV",
        "price": 0.0
      }
    ],
    "source": "fuelcheck"
  },
  {
    "id": "20283",
    "name": "Arriva Strathfield",
    "brand": "Exploren",
    "address": "23 Morwick St, Strathfield NSW 2135",
    "lat": -33.8747073,
    "lng": 151.0949486,
    "prices": [
      {
        "fuel_type": "EV",
        "price": 0.0
      }
    ],
    "source": "fuelcheck"
  },
  {
    "id": "20284",
    "name": "Asteri Maison - Paddington",
    "brand": "Exploren",
    "address": "6 Cecil St, Paddington NSW 2021",
    "lat": -33.8823359,
    "lng": 151.2335806,
    "prices": [
      {
        "fuel_type": "EV",
        "price": 0.0
      }
    ],
    "source": "fuelcheck"
  },
  {
    "id": "20285",
    "name": "Bankstown Sports Club",
    "brand": "Exploren",
    "address": "8 Greenfield Parade, Bankstown NSW 2200",
    "lat": -33.9199389,
    "lng": 151.0338791,
    "prices": [
      {
        "fuel_type": "EV",
        "price": 0.0
      }
    ],
    "source": "fuelcheck"
  },
  {
    "id": "20290",
    "name": "BATES SMART",
    "brand": "Exploren",
    "address": "12 Shoreline Dr, Rhodes NSW 2138",
    "lat": -33.8330537,
    "lng": 151.0843024,
    "prices": [
      {
        "fuel_type": "EV",
        "price": 0.0
      }
    ],
    "source": "fuelcheck"
  },
  {
    "id": "20306",
    "name": "Canterbury Bankstown Charles Street",
    "brand": "Exploren",
    "address": "10B Charles St, Canterbury NSW 2193",
    "lat": -33.9117104,
    "lng": 151.1172924,
    "prices": [
      {
        "fuel_type": "EV",
        "price": 0.0
      }
    ],
    "source": "fuelcheck"
  },
  {
    "id": "20307",
    "name": "Canterbury Bankstown Council - Campsie Admin Centre",
    "brand": "Exploren",
    "address": "137 Beamish St, Campsie NSW 2194",
    "lat": -33.9077151,
    "lng": 151.1035944,
    "prices": [
      {
        "fuel_type": "EV",
        "price": 0.0
      }
    ],
    "source": "fuelcheck"
  },
  {
    "id": "20312",
    "name": "Christie St - Lane Cove Council",
    "brand": "Exploren",
    "address": "88 Christie St, St Leonards NSW 2065",
    "lat": -33.8237661,
    "lng": 151.1952642,
    "prices": [
      {
        "fuel_type": "EV",
        "price": 0.0
      }
    ],
    "source": "fuelcheck"
  },